{"12.944": {"77.71": {"ChIJq3yWUk8SrjsRwW5jclqaTWY": {"icon": "https://maps.gstatic.com/mapfiles/place_api/icons/school-71.png", "geometry": {"location": {"lat": 12.9438229, "lng": 77.70996099999999}, "viewport": {"northeast": {"lat": 12.9453935302915, "lng": 77.7115222802915}, "southwest": {"lat": 12.9426955697085, "lng": 77.7088243197085}}}, "place_id": "ChIJq3yWUk8SrjsRwW5jclqaTWY", "name": "Vagdevi Vilas School", "types": ["school", "point_of_interest", "establishment"], "scope": "GOOGLE", "photos": [{"html_attributions": ["<a href=\"https://maps.google.com/maps/contrib/104849958624625412859/photos\">Suresh Babu C S</a>"], "width": 816, "height": 612, "photo_reference": "CmRaAAAAZ2yGby6nkDMyyNSw0hUuMxdTskW-3WjE3QDRXXiE2ECcKIawhTZFNskZAsPA4Q8c89QDFXuIYhpOc_AG8uDAJAjt_AZTACM2gwWWAPKS8k53sSE8ejI9ubyADRdzDOsiEhBYyU6hKPCdFA3CXPKPS0BJGhRFYbiO0TKtnDupzi4vzPej7D-wCQ"}], "id": "adb3973e71b92958a3648a04c648acb92e1cac53", "reference": "CmRRAAAAhI5lTCsp7vlaVXP2MsLRe-58u6bMKuPzf9lmm2SoNRBXdBvLENsgniW4X_FaII1KbvvGjgIiBks8wLLK0VKB0uT-9IGmHJ3xoqYn2pfJLYLr2T2TKFviLG2Nk4599E8NEhAMk2_b6DGLIrd4vT874auFGhTFTmp7CIZSW8pLtGs0Zz64r1tpQQ", "rating": 4, "vicinity": "Sy No. 77/2, 77/3B, 77/4, 77/5, Munnekolalu, Marathahalli, Bengaluru"}}}, "12.985": {"77.713": {"ChIJq6qqao0RrjsRYLaadGmFdxw": {"icon": "https://maps.gstatic.com/mapfiles/place_api/icons/shopping-71.png", "geometry": {"location": {"lat": 12.9853, "lng": 77.712513}, "viewport": {"northeast": {"lat": 12.9866489802915, "lng": 77.71386198029151}, "southwest": {"lat": 12.9839510197085, "lng": 77.71116401970849}}}, "place_id": "ChIJq6qqao0RrjsRYLaadGmFdxw", "name": "SBV Exports Limited", "types": ["store", "health", "food", "point_of_interest", "establishment"], "scope": "GOOGLE", "id": "c9f305ee3e24e23d6e496710812de38c85c3f1c4", "rating": 3, "reference": "CmRRAAAAeJTI7txKKbNg2_GP7ZNA9Kd0yxlNRiRKZHwLu0anhwnzyik03A73gEBRTt6yd7lFMimkWe4Xk70OairbzkXDT5ZdbirEsKqjQxF9Sm3M9UGyR27Hsa8Eyrvo2iPXWpSVEhDq-WGS4bu1PIwScak2EAxHGhTN8QFjKrWjGm7DP_dQKU0f9SEP5g", "opening_hours": {"open_now": false, "weekday_text": []}, "vicinity": "31/1,, Seetharampalya, Mahadevpura, Hoodi, Opposite Shell Petrol Bunk, Bengaluru"}, "ChIJNccvPJARrjsR9WtqHyp2IOE": {"geometry": {"location": {"lat": 12.9851654, "lng": 77.7125161}, "viewport": {"northeast": {"lat": 12.9865143802915, "lng": 77.7138650802915}, "southwest": {"lat": 12.9838164197085, "lng": 77.71116711970849}}}, "place_id": "ChIJNccvPJARrjsR9WtqHyp2IOE", "scope": "GOOGLE", "types": ["point_of_interest", "establishment"], "icon": "https://maps.gstatic.com/mapfiles/place_api/icons/generic_business-71.png", "opening_hours": {"open_now": false, "weekday_text": []}, "reference": "CmRSAAAAEYS_GtQKBvreWz1NVEy8EzMGPRy01Or8fbwPztO1_jZkwbMxhSt-48HdkW5yT3RDQNtU38DAWiNsmCYM55z7ZnGetUOEwfU9ScT1TT-pCpY_hal-U1rYvu-Q8m9vJGV4EhDhWbWVKKmHOeWCEueTyj2rGhRgrixlmwQTzf11UtiaRTMzFS0low", "photos": [{"html_attributions": ["<a href=\"https://maps.google.com/maps/contrib/109047766070633471658/photos\">Kunjumaa&#39; s</a>"], "width": 4160, "height": 3120, "photo_reference": "CmRaAAAAPv5OCcFoGGlvz3YL01QpU2vtaRfmE2pZzgLzZw0SpgaYyGRIUpTpLlBVB29f0DQonF74NLNARuv8lyFwhCC7BZDvqVVfPFD_C8-eQTx_LGGUvyjgNrpI9tEwjKw-S0IVEhCA7EeBRrhZKI6ylxeXCj3yGhQcKT-N_GiEZhnwkW9SZMAQN0zP-g"}], "name": "igus India Pvt. Ltd.", "id": "f50cb8484a087c1b4c90f01ba526bea6ac7a1bdd", "rating": 4.4, "vicinity": "36/1, Survey No. 17/3, NCPR Layout,, Euro School Road, Off Graphite India Road, Dodda Nekkundi Indl Area, 2nd Stage,, Hudi Village, Mahadevapura, Bengaluru"}}, "77.748": {"ChIJf_SK2QIOrjsRFahGWBTr9ys": {"geometry": {"location": {"lat": 12.9845239, "lng": 77.7475821}, "viewport": {"northeast": {"lat": 12.9862577802915, "lng": 77.7490760302915}, "southwest": {"lat": 12.9835598197085, "lng": 77.7463780697085}}}, "place_id": "ChIJf_SK2QIOrjsRFahGWBTr9ys", "scope": "GOOGLE", "types": ["point_of_interest", "establishment"], "icon": "https://maps.gstatic.com/mapfiles/place_api/icons/generic_business-71.png", "opening_hours": {"open_now": true, "weekday_text": []}, "reference": "CmRRAAAAAqP-yiRLjOpbiJkVRo66AkkamC6mjwi4BCzffyRzjhgjJsPprenkkUL-DBZo4AT_jjYR612axlHzhEheTzeMnRc1JmMauLPc1WhyBHytVPuqxyDUndDJDQr_ynNamZlrEhAemrQLjTAbp53ge0jvumrPGhTqoa5dm5WLfG0JpmkfpBANaeYUnA", "photos": [{"html_attributions": ["<a href=\"https://maps.google.com/maps/contrib/103769811412610568712/photos\">Ravikiran Reddy Kotapati</a>"], "width": 3280, "height": 1840, "photo_reference": "CmRaAAAAtMkI7KiWJ92hc1m449dhzTjO9SLoZYgzyO4pTaPkLLpmjc-9z-ntFUEeqqg1EuzGUyHgQF_m7JJT0lcLpg4sk42L5ouj7JsEooheLp5AfSDxn0QUn9Q_90QQ4zLYR--AEhBZvrXKybCV3WSSn8hK8g8kGhSYL3AvhPKjeNl16OUTlAv9mL8hug"}], "name": "Snecma HAL Aerospace", "id": "974a71d552f18c2b9dd60fe84c446d51cf2fb1dd", "rating": 4.3, "vicinity": "140/1, Hoody Whitefield Road, Whitefield Industrial Area, Bengaluru"}, "ChIJ04P91gIOrjsRIXGszNyqy5A": {"icon": "https://maps.gstatic.com/mapfiles/place_api/icons/lodging-71.png", "geometry": {"location": {"lat": 12.9852988, "lng": 77.74785760000002}, "viewport": {"northeast": {"lat": 12.9866181802915, "lng": 77.74919553029152}, "southwest": {"lat": 12.9839202197085, "lng": 77.7464975697085}}}, "place_id": "ChIJ04P91gIOrjsRIXGszNyqy5A", "name": "Lalitha August", "types": ["lodging", "point_of_interest", "establishment"], "scope": "GOOGLE", "id": "ca24eba425fe549bbc1447097d1a51a14ef2df2f", "reference": "CmRSAAAAJkEOEfWFxoxVRvG8nUGK3VESrvvEvvGDFE9aLva84O-GBS5uCSFoL0ExG_blXxUVjLMeBKp8F0XoONZ_wVmse5zypSTGjdQDM-3vaXh_N9vESEHy4ozoJ_Osz1F_0VOlEhBaeHLNGINF0cJ3928bwAgSGhTo9HWr7qAYMApQLZGZKt10_YWviQ", "vicinity": "Whitefield Main Road, Prasanth Layout, Kadugodi, Bengaluru"}}, "77.708": {"ChIJEX5NY_4NrjsRDvua1QL7Tcs": {"icon": "https://maps.gstatic.com/mapfiles/place_api/icons/generic_business-71.png", "geometry": {"location": {"lat": 12.9853591, "lng": 77.7081262}, "viewport": {"northeast": {"lat": 12.98670808029151, "lng": 77.70947518029149}, "southwest": {"lat": 12.9840101197085, "lng": 77.70677721970848}}}, "place_id": "ChIJEX5NY_4NrjsRDvua1QL7Tcs", "name": "Pharmed Limited", "types": ["health", "point_of_interest", "establishment"], "scope": "GOOGLE", "id": "c7eb64edb0790d68b9bd26ff9e954d14d6ab0321", "reference": "CmRSAAAAinsJHtNN2J_os2uWjcTvqNwzBSleZKwI2z00TkME555sAhf872KQtaoRM6R1hxykEo1lC_ZTN8XzFVD-xwuu8jG3URmqqWT0cYvtIZta9Ece9Vv4ArgMggt_A_5jxzhIEhChmYWRb8C8xzjj5v7zjxSoGhRpv6_rKO_yDaFrkbdeR3cZKz77IA", "rating": 3, "vicinity": "Pharmed Gardens, Thigalarapalya, Whitefeild Road, Krishnarajapuram, Bengaluru"}}}, "12.973": {"77.701": {"ChIJgyiCP4ARrjsRUXqTuDMs-aA": {"icon": "https://maps.gstatic.com/mapfiles/place_api/icons/generic_business-71.png", "geometry": {"location": {"lat": 12.9732773, "lng": 77.7007715}, "viewport": {"northeast": {"lat": 12.9742629302915, "lng": 77.70196183029151}, "southwest": {"lat": 12.9715649697085, "lng": 77.69926386970849}}}, "place_id": "ChIJgyiCP4ARrjsRUXqTuDMs-aA", "name": "Alpine Eco Apartments", "types": ["point_of_interest", "establishment"], "scope": "GOOGLE", "photos": [{"html_attributions": ["<a href=\"https://maps.google.com/maps/contrib/116110806048584214735/photos\">mbalaji singh</a>"], "width": 3264, "height": 2448, "photo_reference": "CmRaAAAAN0Lb3C3cZrPNpop3ivXg4AYbADGQsU0IXp_rgdkd9FGOwVcsUWMwJQW3qFXkzNQFCJbDTujfzdKCOPmyKx95wT8XGOEl7RpfyeuoTEmh_5bnXLEEvkfLHEMI9yHdbqB6EhBN2lIGhlO-B1hhIObv0FqsGhR3XK5ac9KQzS8XUAYgCYjSAks7Dw"}], "id": "1e43c75a8411513260ca5f5d513af1a2abb4222d", "reference": "CmRSAAAA3zzfMcD7tzILsHLMJukQ9BT4DdAvvSLCpZLXmcwEMBpKqsD9lO12BmoSmOuQIbiSQfvk8nu4mg51zB1H3EQtlkxHTEOIc9m_CnaZwsR_s9waEJDupMfAAmfqXT1IW3thEhBFMmQUxOI-0fTSbmeoMD4yGhSW19FlyKr2PbxEGptgM5ghgL0TKw", "rating": 3.8, "vicinity": "No. 13, Doddanekundi Village,, KR Puram, Hobli, Bengaluru"}}, "77.748": {"ChIJd9zw8v4NrjsR8gZEZaOuKp4": {"icon": "https://maps.gstatic.com/mapfiles/place_api/icons/generic_business-71.png", "geometry": {"location": {"lat": 12.9730749, "lng": 77.74757799999999}, "viewport": {"northeast": {"lat": 12.9744238802915, "lng": 77.7489269802915}, "southwest": {"lat": 12.9717259197085, "lng": 77.74622901970848}}}, "place_id": "ChIJd9zw8v4NrjsR8gZEZaOuKp4", "name": "Cheshire Homes India", "types": ["point_of_interest", "establishment"], "scope": "GOOGLE", "photos": [{"html_attributions": ["<a href=\"https://maps.google.com/maps/contrib/110206445918585614539/photos\">Suresh G</a>"], "width": 4608, "height": 3456, "photo_reference": "CmRaAAAAXoNo7ne4LQeXeLQ7LVQL4AiiXJcdu9gfPevimYD-ctSjDd5Waz3IPoqvtMAvT_BkaZL630HsjIRo0osy3apXEPXEPNWBFIsG1eyMnwMwjKoHEzFdSeFAjqok5KRtQRXIEhC8CMW8waGPG3CSZdDz2yD7GhR8veIUTc1QU7OC1glUCDPEv0ph1g"}], "id": "ee419c47152e55aa954cb1c0cea73fa6f95ecf75", "reference": "CmRSAAAAheTfgyGp39JQHen-Ehg-5T1uWfLbMh3TNFZrslANrs_ajBlMyk9iUySEiNOt09IMWqGavUh8_vtjS-ilaWbfD4xcWMQJ1cW3Aw1m0MM-jn3ZnnfBcyxGmJAzCJ0JPJ4PEhCxpt2z04MRyMFSRyNxyoL8GhQGrI70oZiWgH2kZUOwtx5utHYXIA", "rating": 4.2, "vicinity": "408, Outer Cirle, Whitefield, Bengaluru"}}, "77.75": {"ChIJjSu2b_4NrjsRg7li9sckSfs": {"icon": "https://maps.gstatic.com/mapfiles/place_api/icons/worship_hindu-71.png", "geometry": {"location": {"lat": 12.9727405, "lng": 77.74992449999999}, "viewport": {"northeast": {"lat": 12.9740894802915, "lng": 77.7512734802915}, "southwest": {"lat": 12.9713915197085, "lng": 77.74857551970848}}}, "place_id": "ChIJjSu2b_4NrjsRg7li9sckSfs", "name": "Maha Ganapathi Temple", "types": ["hindu_temple", "place_of_worship", "point_of_interest", "establishment"], "scope": "GOOGLE", "photos": [{"html_attributions": ["<a href=\"https://maps.google.com/maps/contrib/111166319390201928275/photos\">Srinivas Shastri</a>"], "width": 4000, "height": 3000, "photo_reference": "CmRZAAAAcWTpCoiTdrc-HIyQwJN-j8qIw5s3YFmS9_M7fOn_O4wjlQ0my-J2-ANhH7uHCOrBOd9Xbiys_DNJcJOQtNKUC4fTivfA35lL4hrMUQSEYkmMLRtK8HBboqY_kCV-_4KuEhDP72bEaDpQaOqtJl6z5J5QGhResXdlC4DsDCyvBWLsO5wI0ibfOw"}], "id": "391a45d4f36215e75d38279da5721bbdf76b286d", "reference": "CmRSAAAAq5i6vaG2ymXTJy6iTNRWU5CoFgr9o0bh4NV-wsgJdXy9qaKzB2MTcjQ4DYrIppUrUf9MFPQAP_Nb_6U683VVI2ErzrGHRNfwsTt2GtcDhEZ_ww8dfX6GNs9nh1GcSAtkEhD8xkPTMyWE-7ZmgSPPBLY2GhT0brxxzlNXiFLeUZY_MggasWqB0w", "rating": 4.4, "vicinity": "Ramagondanahalli, Whitefield, Bengaluru"}}}, "12.978": {"77.711": {"ChIJm8oTq4gRrjsRQFEsV_mz9do": {"geometry": {"location": {"lat": 12.9783202, "lng": 77.7112487}, "viewport": {"northeast": {"lat": 12.9796093802915, "lng": 77.7124803302915}, "southwest": {"lat": 12.9769114197085, "lng": 77.70978236970849}}}, "place_id": "ChIJm8oTq4gRrjsRQFEsV_mz9do", "scope": "GOOGLE", "types": ["gas_station", "point_of_interest", "establishment"], "icon": "https://maps.gstatic.com/mapfiles/place_api/icons/gas_station-71.png", "opening_hours": {"open_now": true, "weekday_text": []}, "reference": "CmRSAAAAXiIn2fbd2mBLhKpar3W1qAclOem1t7cLcV6Xq2-JOQHwbcvgJ5G6qLYdyQOo5ujkvV9-pc_irsCIZSUr_FHCjkyOT-RBejOHMsvZj6mQ5M0ksj-H8J5GvFdwc4dy-_QUEhBN3TSZ9hfgywFMqI79DigMGhQzfjiAUNpwGb3RO-WPMpsRQCbVfA", "photos": [{"html_attributions": ["<a href=\"https://maps.google.com/maps/contrib/100627998213330275068/photos\">B Thomas</a>"], "width": 3264, "height": 2448, "photo_reference": "CmRaAAAABGLYIk62fV1f504RfCNIm38x2wnXqFIu3vOscPw2hsIr9bH-43mTY7L4wdTVUzL2wH-N_vPo0yfWJ8vc16_6TIoKwOYBBIl5HHUtKoCA5QRJ9cNjm1Y0rIv6V3eUfKNoEhAWCQFm_sexYDMD1lWppXifGhS1K-DdAHAGuKVxoLef_Kl80XJNEw"}], "name": "Indian Oil", "id": "f130fe08701a72d2da8a49724307c165bfa2add5", "rating": 2.7, "vicinity": "Hudi, Seetharampalya, Whitefield, Bengaluru"}}}, "13.0": {"77.74": {"ChIJE8R9PncWrjsRoRYFUNsTDaE": {"icon": "https://maps.gstatic.com/mapfiles/place_api/icons/generic_business-71.png", "geometry": {"location": {"lat": 13.000306, "lng": 77.74020089999999}, "viewport": {"northeast": {"lat": 13.0016549802915, "lng": 77.7415498802915}, "southwest": {"lat": 12.9989570197085, "lng": 77.7388519197085}}}, "place_id": "ChIJE8R9PncWrjsRoRYFUNsTDaE", "name": "Kodak India Limited", "types": ["point_of_interest", "establishment"], "scope": "GOOGLE", "id": "ff9923f88613cfceb9e052b9914bd3d88527820f", "reference": "CmRSAAAAmBw1JGFNN5IDTDumXGvwkhELjMIHqNMVXrn1zgV4lDc6VQaRl65QPE_l4x7DRtCV1u3DsLD2nqb7JwfjWxfgJo7Vf6QjyZRB4yAsB27Tupd3_f0Oci6RiFVtB3t127GBEhAJSQhDu8VOtAMlfX2H6D_CGhSO1LsgCLkxc7uW6VgCoVbzRkoKCQ", "rating": 3, "vicinity": "16, Sadaramangala Industrial Area, Wfd Road, Sadaramangala, Bengaluru"}}}, "12.943": {"77.695": {"ChIJsahqQbsTrjsRe-hI6TJzi9c": {"icon": "https://maps.gstatic.com/mapfiles/place_api/icons/lodging-71.png", "geometry": {"location": {"lat": 12.9427107, "lng": 77.69466369999999}, "viewport": {"northeast": {"lat": 12.9440596802915, "lng": 77.69601268029149}, "southwest": {"lat": 12.9413617197085, "lng": 77.69331471970848}}}, "place_id": "ChIJsahqQbsTrjsRe-hI6TJzi9c", "name": "24 Tech Hotel", "types": ["lodging", "point_of_interest", "establishment"], "scope": "GOOGLE", "photos": [{"html_attributions": ["<a href=\"https://maps.google.com/maps/contrib/115380856857845942854/photos\">Sreerag Nampoothiri K</a>"], "width": 4608, "height": 3456, "photo_reference": "CmRaAAAAQTqTbBHapr290jr5Jy10CQSsJmkQe3B7lEWfb253vm4XSycs8iWjc_ERQUXAQ3gWUVPBTdwuOn3jLiCpBCTDfG8shaY9_c7GV-K9vHes9OZ5IL70v0hPErYd-wWHXuLtEhDUcvGiz0Ie9mZ1fp4_7gpOGhRsNHnt8lMkpULKbw0OXgm38bqV3Q"}], "id": "6324e847e2067e344937e20eb214e18458d85a1d", "reference": "CmRSAAAA6XqepJBuqpdQpHw1ht0JFa8QcpGKCabBb8c649uSQLZqFGvj6kNnt7gqQsBVv5Jo9GtebWw3WMg_cO6v83hdnZL2hsu7sWZym9NLPbSzOu7PTPgMe2PcQ_s3yNif5tD6EhBNdJlEhS1rK5EtyYID6vvUGhTODoG6zT22GY-vrsGnR2wpuT7sRg", "rating": 4, "vicinity": "Sarjapur-Marathahalli Outer Ring Road, Kadubeesanahalli, Bengaluru"}}, "77.749": {"ChIJmx_754gNrjsRxjC_0IeEvDE": {"geometry": {"location": {"lat": 12.9428791, "lng": 77.749268}, "viewport": {"northeast": {"lat": 12.9442247802915, "lng": 77.75054663029151}, "southwest": {"lat": 12.9415268197085, "lng": 77.7478486697085}}}, "place_id": "ChIJmx_754gNrjsRxjC_0IeEvDE", "scope": "GOOGLE", "types": ["point_of_interest", "establishment"], "icon": "https://maps.gstatic.com/mapfiles/place_api/icons/civic_building-71.png", "opening_hours": {"open_now": false, "weekday_text": []}, "reference": "CmRRAAAALButUwPjbHzgInGjr5fi-aE-Dd8ee5v99s8VROiOlhuX8S4PNqGaYx_tcc5WsXpQJBRz9FISKO8cybK44iJvrTRLK7B_vAgY77_hb6fkMTdnnxX_fvrgwOwuk-Ak7cPYEhBdKnQQoHofANy_Yws3sy_TGhTSj1vRqFjOH_ykHG6Nm_Eo9xAiiQ", "photos": [{"html_attributions": ["<a href=\"https://maps.google.com/maps/contrib/100436945470778038495/photos\">San LG</a>"], "width": 2340, "height": 4160, "photo_reference": "CmRaAAAASUySLAdWjAKn5nWs4cb1fx_IXY3ttTInGfyTC7evfZ8GDyHb0ax_ruw9OJLQGrtzqXTn0rT7S_6ChkZQZe2LX0YSkLAEj2Igj7HwPFR-hoxf7zV07pPpYkMSikcgA-dkEhB-rDFlN68tpddMxtAhzbtUGhSzm1PDohLEC5RWLa1yLQOsSSI7ig"}], "name": "BBMP Sub Registrar and Registrar of Marriages", "id": "f5a168e990cfaf273ae6b66e8f7a5b86be94ceaf", "rating": 2.5, "vicinity": "1st Floor, B M Complex, Opposite To Dharmaraya Swamy Temple, Harohalli Road, Varthur, Bengaluru"}}, "77.737": {"ChIJ2SuYHnESrjsRa2vJXMiFI8A": {"icon": "https://maps.gstatic.com/mapfiles/place_api/icons/geocode-71.png", "geometry": {"location": {"lat": 12.9428958, "lng": 77.7366242}, "viewport": {"northeast": {"lat": 12.954476, "lng": 77.747423}, "southwest": {"lat": 12.931932, "lng": 77.7280589}}}, "place_id": "ChIJ2SuYHnESrjsRa2vJXMiFI8A", "name": "Devasthanagalu", "types": ["sublocality_level_2", "sublocality", "political"], "scope": "GOOGLE", "id": "8ba6502c1d3f4378d7dd19c21cf6f8eb2b577435", "reference": "CmRbAAAAti0V7YbLRobqD1NCjcR9EOs9-Wb8eEYDcwpRvvYC9cI-pVMUr-OJYAR85wu9XBIGbpjyk3maOB-ysD2pWa2qcK4j-HahoIDcrbKItWBbD4VeNnrx8gP6j0OwQeF1dfaIEhCqahHFNZYlxw17dv5KK1GoGhQd-8HVz2kyYVp-e4_8qIVJtD0tJA", "vicinity": "Devasthanagalu"}}}, "12.99": {"77.713": {"ChIJXXklLJcRrjsRcLMqXbcJxwo": {"geometry": {"location": {"lat": 12.9901595, "lng": 77.71304359999999}, "viewport": {"northeast": {"lat": 12.9914465802915, "lng": 77.71454873029151}, "southwest": {"lat": 12.9887486197085, "lng": 77.71185076970849}}}, "place_id": "ChIJXXklLJcRrjsRcLMqXbcJxwo", "scope": "GOOGLE", "types": ["car_repair", "point_of_interest", "establishment"], "icon": "https://maps.gstatic.com/mapfiles/place_api/icons/generic_business-71.png", "opening_hours": {"open_now": false, "weekday_text": []}, "reference": "CmRRAAAAkLKMHI_C9VVxxsr-s-mc7fuM5xsEPCCyK78K0qheLLixohWC_8-bNDqLIZm8vwgSglOfdlMaB_u6cgKELNZAllrHOCBabggOW4ydJVMGh16RcZhoAafUoLMuQsMqiAf6EhALgWLUg5tidZxFyYPuqUhAGhT-qoB9y8jxt8qTDS1yJQ3cqyi-jQ", "photos": [{"html_attributions": ["<a href=\"https://maps.google.com/maps/contrib/112788319974816064680/photos\">lakshmikant singh</a>"], "width": 3264, "height": 1836, "photo_reference": "CmRaAAAAxMWnnL9jXqw4gG717qEDVLowqVwJODNYQyPb7T1i-S5DEjUdDbr5j2vF2Xjq8LGf7t1FUXL4jlkiiG8Pyn3OcrBe3w7s_C3qUzL4-r4KR0UNoWNxDIKwGhtRUs82kY0PEhDCV4DASnShzKHKYFX1hX2TGhTXDHsyLo0vOF3DliBfBCSCD1BeVw"}], "name": "Sundaram Motors Mercedes Benz Service Station", "id": "8c32587613e0a3c245fae91b14362269ea85646c", "rating": 3.9, "vicinity": "Hoodi Main Road, KEB Colony, Industrial Area, Hoodi, Bengaluru"}}, "77.736": {"ChIJEX5NY_4NrjsRfpZxQCyCWrw": {"icon": "https://maps.gstatic.com/mapfiles/place_api/icons/generic_business-71.png", "geometry": {"location": {"lat": 12.9898225, "lng": 77.7360298}, "viewport": {"northeast": {"lat": 12.9911714802915, "lng": 77.7373787802915}, "southwest": {"lat": 12.9884735197085, "lng": 77.73468081970849}}}, "place_id": "ChIJEX5NY_4NrjsRfpZxQCyCWrw", "name": "San Engineering and Locomotive Co. Ltd.", "types": ["point_of_interest", "establishment"], "scope": "GOOGLE", "photos": [{"html_attributions": ["<a href=\"https://maps.google.com/maps/contrib/105483171967719591089/photos\">Franklin Jayakaran</a>"], "width": 4032, "height": 3024, "photo_reference": "CmRaAAAAX100YuQFAN6QdKulLP26xxxKVt5Ea18AMUPGt_UNMu7VG_wBxlZx4SMR3DFiQGptNA9iHFoMQwOolKgXmk1nK2JzCqUJU8FJTbaRWHJ_7wH2HphcuzNPYLxdKgCVpAz_EhADbMdRN6HMatzNT68N9pT1GhQxE5bhh5Iu3mp4u74f7il8T5Tstg"}], "id": "03eed4414cb00e23b269c86a93be6b7ea8662f2b", "reference": "CmRSAAAASQY0eoQyFDlIyUPxJKpGT8JkPXCyGlJa2gy4Bj_oXMBw5uoozLJZWTCJ6btLMimxATNrF1e53DW9rZnTEG0l1hYxmoK8pTBlDd6CIiPy_YKmU19kdbjl91E5L81sMmXNEhCF87lsjalLvAj6PCq49cuzGhQGVEFcJkZS_3en7UchxebUMXv6JQ", "rating": 4, "vicinity": "Kadugodi, Bengaluru"}}, "77.702": {"ChIJp4RJip4RrjsR-NaAj5tlHpM": {"icon": "https://maps.gstatic.com/mapfiles/place_api/icons/generic_business-71.png", "geometry": {"location": {"lat": 12.9895654, "lng": 77.702236}, "viewport": {"northeast": {"lat": 12.99589105, "lng": 77.70415443029151}, "southwest": {"lat": 12.98631125, "lng": 77.70145646970849}}}, "place_id": "ChIJp4RJip4RrjsR-NaAj5tlHpM", "name": "Regent Club", "types": ["point_of_interest", "establishment"], "scope": "GOOGLE", "photos": [{"html_attributions": ["<a href=\"https://maps.google.com/maps/contrib/107664310458942656754/photos\">Regent Club</a>"], "width": 1260, "height": 768, "photo_reference": "CmRaAAAA_KJF1J4l6R9xd1_fxSpJ77Ge9uM-QLivLI25G5kBlvnTHgdcJWP7VzXEzkhVUTypG9J67w40Hg0QRqXljDHjfwwXj392Dd3n9v-wTnlh-mFkk548-Qrn8A_In34OkckMEhC1RCAhc_Jl9AkdjD_LcpruGhRGtcZuB8ALmAFkX9TYZVvXOH3HLw"}], "id": "152fbc20c94dfc702da4588dda45dd1bd5d0bfbb", "reference": "CmRSAAAATz_ivWXOjWFQ1ogQsBHDmSfdnUWKgBD6lpYXm3LwnV5BDQ9LhZKd1EuBsMQTiol-79jGHYQylEqFxFyTrD2-dBkGrwLwUP93LtvI3ruKke16nrmZkL2SCY9bginqqbFcEhBelZHamYsFkgOVvHh4bYpZGhR2zlqF3wiBX7uaYQRmaB18KYfYAg", "rating": 3.6, "vicinity": "No. 114/1, Brigade Metropolis Campus, Garudachar Palya Main Road, Whitefield, Bengaluru"}}, "77.723": {"ChIJlUV6puwRrjsRaCaFbZRJ9Y0": {"geometry": {"location": {"lat": 12.990047, "lng": 77.723142}, "viewport": {"northeast": {"lat": 12.9916178802915, "lng": 77.7244331302915}, "southwest": {"lat": 12.9889199197085, "lng": 77.72173516970848}}}, "place_id": "ChIJlUV6puwRrjsRaCaFbZRJ9Y0", "scope": "GOOGLE", "types": ["spa", "lodging", "restaurant", "food", "point_of_interest", "establishment"], "icon": "https://maps.gstatic.com/mapfiles/place_api/icons/lodging-71.png", "opening_hours": {"open_now": true, "weekday_text": []}, "reference": "CmRSAAAA8vTbxv_2iEs7PK7DNJgBAKE7yT91ai-7VB8sOmujysobQuIamDjgBx-ySji_JTlATcbwqBtqv_B4Tbo-eVM5fwL0P1ouItjJk8cfIBTqTZXhyy8tai5-Q4SWvCOTVzRxEhCv5bQkoQt4_8gEwkNKaYEtGhRl-qYj1ogkisKvGL8dYrwziXDE0Q", "photos": [{"html_attributions": ["<a href=\"https://maps.google.com/maps/contrib/108408497683292338484/photos\">Raj Sekhar Thota</a>"], "width": 3456, "height": 3456, "photo_reference": "CmRaAAAAaaiOUBTVrzFbnRaaXLkOh7d1lksYJryIjvJfhrq7xmSMsjGWeBT_QV2FJch9u55a2Xz7ZvrdUXRG_OOBPRNYUkUiF5jpb2XqWKk3HjwntZYGypPKCzCMj3daaCKKHbhsEhDRUgqltYlZfdop0MN7kkgUGhSsVgVPIXBqYEBzSfBzQcyFfyrOMQ"}], "name": "The Zuri Whitefield, Bengaluru", "id": "9199eb77df01d1afa686393a5ce9e3874d9a2fa4", "rating": 4.2, "vicinity": "ITPL Road, Whitefield, Bengaluru"}, "ChIJP5Dko-wRrjsRtnD1wZcFteM": {"geometry": {"location": {"lat": 12.9899405, "lng": 77.7234422}, "viewport": {"northeast": {"lat": 12.9912894802915, "lng": 77.7247911802915}, "southwest": {"lat": 12.9885915197085, "lng": 77.72209321970848}}}, "place_id": "ChIJP5Dko-wRrjsRtnD1wZcFteM", "scope": "GOOGLE", "types": ["bar", "point_of_interest", "establishment"], "icon": "https://maps.gstatic.com/mapfiles/place_api/icons/bar-71.png", "opening_hours": {"open_now": true, "weekday_text": []}, "reference": "CmRSAAAA4dkUPfvDZU9xXGH5vT85lrJsW2gChfLezVWCdfQvVoxznoo0uyNLGYKDO_DJoKvgzRn__7AxFTQ9JSAk76YnIHJTJzrklcyAfbFOkw1ITqBgwGJvBnhoady6pvOXi2XAEhBVFU7JEWlBNxv0rDa3GZJyGhQj_ZlTH8c-e463YX9rvTO21207Dg", "photos": [{"html_attributions": ["<a href=\"https://maps.google.com/maps/contrib/115425646724306563001/photos\">Infinity</a>"], "width": 521, "height": 520, "photo_reference": "CmRaAAAAnk1jvBq5hjX8LuHGRX4fnHQMKYOUYfdFHMggo2a1O4EHgomJojPDZrjMPA5Qg3rMkfUCq18sWVCo94NUskcY5cLOH-IOgF6UeKUxWOLJgoX_9ZBSmH3iIiGYKTNVhF89EhC2_IPjAuo6WmOeh4w3PqaXGhQMSIiKp0uj6-0qC6ImteQeyy6iDw"}], "name": "Infinity The Zuri Whitefield", "id": "a13dbba83546ffcccaedafae876be7517bac136d", "rating": 3, "vicinity": "The Zuri, Whitefield Road, Maruthi Nagar, Whitefied, Bengaluru"}, "ChIJv83fpewRrjsRf261smgZkFA": {"geometry": {"location": {"lat": 12.989836, "lng": 77.723092}, "viewport": {"northeast": {"lat": 12.9911849802915, "lng": 77.7244409802915}, "southwest": {"lat": 12.9884870197085, "lng": 77.7217430197085}}}, "place_id": "ChIJv83fpewRrjsRf261smgZkFA", "scope": "GOOGLE", "types": ["night_club", "bar", "point_of_interest", "establishment"], "icon": "https://maps.gstatic.com/mapfiles/place_api/icons/bar-71.png", "opening_hours": {"open_now": true, "weekday_text": []}, "reference": "CmRRAAAAYZk2n1dEFiYOpUyTm8dGCkVVI9tbn8Du_GTIGIegjh16wG_LyPUq4rsmkVs9jiMDLiDgoefNkyDBcrE8815fz3Ly6r9oxS8TRyc4aGZjnfXqUlSeFyK3nLlVxHduP9aREhBvz-X_FWf4s4yAy2CavhuZGhSW_23Co8qhDCDNz7UkZfrYqFM14A", "photos": [{"html_attributions": ["<a href=\"https://maps.google.com/maps/contrib/111104026291378813903/photos\">Randeep Singh</a>"], "width": 2304, "height": 4096, "photo_reference": "CmRaAAAACC7iU7ypybqVlXsbYqOf9Gy7oo3RZ62gqey9W6tHH4HBnh2jArF2ng1RjjZUSt-jPmQXqIs7EHmxQc0e53T4oVUMv11DbENphC482LVxgHrrxz0hDlw9cqNQxaDLPMUjEhDHTXbJihIsBLs2su5FxERGGhQ4_BfsYlzNr6DKTtBZrRPSa_cRxQ"}], "name": "Bling", "id": "6f7fa47515db4a6def661e5fbcec87ebdb0f4ec6", "rating": 3.1, "vicinity": "244, ITPL Main Road, Whitefield, Bengaluru"}, "ChIJeWXtNpURrjsR_Hw03gtcfA8": {"icon": "https://maps.gstatic.com/mapfiles/place_api/icons/restaurant-71.png", "geometry": {"location": {"lat": 12.9898463, "lng": 77.7231746}, "viewport": {"northeast": {"lat": 12.9911952802915, "lng": 77.7245235802915}, "southwest": {"lat": 12.9884973197085, "lng": 77.72182561970848}}}, "place_id": "ChIJeWXtNpURrjsR_Hw03gtcfA8", "name": "Sake", "types": ["restaurant", "food", "point_of_interest", "establishment"], "scope": "GOOGLE", "id": "74c948075abdf91000c16ec6f80e89e294d9b626", "rating": 4.1, "reference": "CmRRAAAAYVeRTiklr5xOxc817mIuDMdpBTlWaCxC0mq4q_shCMpEQCbFMV5LyF_ytlhYn4BsrRw2iH-k3kArI77ctOzdJQ00vi-A_ekVyAVgzqgZvaWXEXuhLEXwr4kA-xcMhtBpEhDGon4oLxUQuMcenUiWn2DUGhSDz3iNzLvSB_naaYu6GFq3vXJrTA", "opening_hours": {"open_now": true, "weekday_text": []}, "vicinity": "Top Roof, The Zuri Hotel, ITPL Main Road, Whitefield, Bengaluru"}}, "77.734": {"ChIJ6_LPiO09rjsR4Kz34IsbdAw": {"icon": "https://maps.gstatic.com/mapfiles/place_api/icons/generic_business-71.png", "geometry": {"location": {"lat": 12.99024, "lng": 77.73363549999999}, "viewport": {"northeast": {"lat": 12.9915889802915, "lng": 77.7349844802915}, "southwest": {"lat": 12.9888910197085, "lng": 77.7322865197085}}}, "place_id": "ChIJ6_LPiO09rjsR4Kz34IsbdAw", "name": "The Media People India", "types": ["point_of_interest", "establishment"], "scope": "GOOGLE", "id": "fca6ab63f2e93fdb45f478225e1eff01cd79b52f", "reference": "CmRRAAAAsPUzeLhjzfKJ7H7ZbI7d5gQo3rQjz2JJCuXh31LZzqcAQLJz9We9A-RpXyA1ag2AjtITojRNpkOIpz6n_8sEhzKTkgIjOO3-cB-NoQq6Rw3CQX3SVZ2YhtMrjG84Et76EhARcJB9nx_77nPCXQVo11pZGhSoUUfRk4hsgq-R0Z3OWNnYCEzygA", "vicinity": "whitfeild, Bengaluru"}}, "77.72": {"ChIJFQtPh5QRrjsRq714q9JztN0": {"icon": "https://maps.gstatic.com/mapfiles/place_api/icons/generic_business-71.png", "geometry": {"location": {"lat": 12.9902727, "lng": 77.71959249999999}, "viewport": {"northeast": {"lat": 12.992607, "lng": 77.7212051802915}, "southwest": {"lat": 12.9894946, "lng": 77.7185072197085}}}, "place_id": "ChIJFQtPh5QRrjsRq714q9JztN0", "name": "Ittina Akkala", "types": ["point_of_interest", "establishment"], "scope": "GOOGLE", "photos": [{"html_attributions": ["<a href=\"https://maps.google.com/maps/contrib/109988381671784029561/photos\">Amit Verma</a>"], "width": 5344, "height": 4008, "photo_reference": "CmRaAAAAAd5urP1iwiM7__F8OGNRSY4sS8ozYPsK2IxW86txy359NXpZjtsSDjx78TeJhmKPYa-Rp34srEadCS0ELDshv3PBdzOU4A-JfXCbU-IpB4ahEy2Q8oQ6a83PRhZqKOGwEhA-xwWTE8-THWZLXpPVfxdJGhRyKorabVK5aawBUvzjmugGXMWabA"}], "id": "8e2f3e00833d222a87c3ed7b0e8ba18ca775dcad", "reference": "CmRSAAAA1Kfqo7pRZtQG7lt60mMKfV6BPhFioTEJ95iP82dN-dSAKG0LF8gx36uEmsAgilRLUuY4aUJqXI_sR7zRkElJ-tZeck9JjzoxFHvlpDVynuscUYL72lShuNI3Vs8dm98dEhC7K7HdhqxgmEoZAvwnAaWAGhRdiiZpJInNvjhW5b0vFvTY9UP8aA", "rating": 4.1, "vicinity": "ITPL Main Rd, Near Hoodi Circle, Rajpalya, Hudi, Whitefield Main Road, Bengaluru"}}, "77.733": {"ChIJE8R9PncWrjsRLSbCGa5Cl8Y": {"geometry": {"location": {"lat": 12.9902969, "lng": 77.73273019999999}, "viewport": {"northeast": {"lat": 12.9916458802915, "lng": 77.73407918029149}, "southwest": {"lat": 12.9889479197085, "lng": 77.73138121970848}}}, "place_id": "ChIJE8R9PncWrjsRLSbCGa5Cl8Y", "scope": "GOOGLE", "types": ["lodging", "restaurant", "food", "point_of_interest", "establishment"], "icon": "https://maps.gstatic.com/mapfiles/place_api/icons/lodging-71.png", "opening_hours": {"open_now": true, "weekday_text": []}, "reference": "CmRSAAAAPDjCbJG1AbOpjSGOtlL4873L-TeMoXhOmhzL-c0DZWZcXWWzffTvpiUY3-t0Dalu_8beGViGiuWkiqzLuuLB38tyQIYl_ORL6LcG41H2eg2EsXzZdY4Oa96H5YHiKmjXEhDIIKw16yQXXghjv-HYISisGhRx22QIvUkGayj60WKUtodnzOUYKw", "photos": [{"html_attributions": ["<a href=\"https://maps.google.com/maps/contrib/113330012588047929277/photos\">Aloft Bengaluru Whitefield</a>"], "width": 3840, "height": 2570, "photo_reference": "CmRaAAAApIDNKZvJh2JWKiDmj4AodLVKNBsvdHKEfty4HGkEF8Xz42aV0ORlGa3dJOTMSXXHZBstTO600Y1XfiOXYk5Gc_5tWfKhN65fIGlx-Tsc5i2b8Eb_n9a6xDzsz_Xh_tcAEhAbrzJ1V7dpaJmQSwgdmGLxGhST03t3AKhlyGLxKscBzQ80Ya-eVA"}], "name": "Aloft Bengaluru Whitefield", "id": "de43e9d508099157cf2bcf6de13b3656efe916de", "rating": 4.1, "vicinity": "17C, Sadaramangala Road, Off Whitefield Main Road, Opposite ITPL, Bengaluru"}}, "77.722": {"ChIJeWXtNpURrjsRtIPiGuGfL40": {"geometry": {"location": {"lat": 12.9903711, "lng": 77.7220834}, "viewport": {"northeast": {"lat": 12.9918865302915, "lng": 77.72358773029151}, "southwest": {"lat": 12.9891885697085, "lng": 77.72088976970849}}}, "place_id": "ChIJeWXtNpURrjsRtIPiGuGfL40", "scope": "GOOGLE", "types": ["store", "point_of_interest", "establishment"], "icon": "https://maps.gstatic.com/mapfiles/place_api/icons/generic_business-71.png", "opening_hours": {"open_now": false, "weekday_text": []}, "reference": "CmRSAAAA9V9AMHtTSYVjgXFbJ16iyjwFtS3qoDO__oudMxFktaGZMg9fQicIdIn2lkaZpYRBV3n0g62O4Xjrnk1-ohdu7U3uzmwzE5a1ixMaHHCDK0G-_I2ybQUyCk6-_PgAQqbgEhA9DrdPyiB7yP2hWpJLhXqSGhS6E4YAz-ULZ8SKJsYl-rxSV5jCww", "photos": [{"html_attributions": ["<a href=\"https://maps.google.com/maps/contrib/108145293887465228742/photos\">Ajay Sharma</a>"], "width": 4160, "height": 3120, "photo_reference": "CmRaAAAAJvTC0ojw4w5SRtzpUN6lErLywLI_KEGaUtqEcdMFhiYDv6jyVUXMRe9CpQUPhiRaCOawjn4xqeBeMqJafOmFY04mKnEOhGc4MBZV7BtPgnBOqK0dBv5AEyMvkL2AtFIeEhDkqsNj5m9JFnlnVhu0AwvBGhSBL18KIwoZc3pgweqx2lo7ZxZULg"}], "name": "Saint-Gobain", "id": "6d64be09c841b6d9f01932d47a51b253599d767d", "rating": 4.7, "vicinity": "Sy No-171/2, Maruthi Industrial Estate, Hoodi Rajapalya, Whitefield Main Road, Hoodi, Bengaluru"}}}, "12.954": {"77.729": {"ChIJofx4xDkSrjsRU80DoV1AvsU": {"geometry": {"location": {"lat": 12.954021, "lng": 77.729069}, "viewport": {"northeast": {"lat": 12.9553699802915, "lng": 77.7304179802915}, "southwest": {"lat": 12.9526720197085, "lng": 77.72772001970849}}}, "place_id": "ChIJofx4xDkSrjsRU80DoV1AvsU", "scope": "GOOGLE", "types": ["general_contractor", "point_of_interest", "establishment"], "icon": "https://maps.gstatic.com/mapfiles/place_api/icons/generic_business-71.png", "opening_hours": {"open_now": false, "weekday_text": []}, "reference": "CmRSAAAAwK1YT6dwGES1GFXJf3XJiTXJreJJUYY2zRm40HSiwWd0QSVSOA9bRFgW2IIJmg3WnewZNaF7arW-MhvonGu7NU2yk1yh9tmvn-wGlKx-lZdEtsk1HWxSYyRQZhgdp9P5EhCJbxs-YcJ4JhqOSn3_cL80GhS8IYspCL7wzCEQMFa0qWY2299W-g", "photos": [{"html_attributions": ["<a href=\"https://maps.google.com/maps/contrib/104830335411293102117/photos\">Asense Interior</a>"], "width": 2048, "height": 1366, "photo_reference": "CmRaAAAARy-jgOgHMgNn4VY_k3M2Jrufesy1jV_atfqVpMrmXi7BEdDi0tCEjNDk724nnNUV3uEJv9RaRX9S7YP57kDH63_l1e9TN1UZpbfRiOQqtaZgwwrnBdyrRk4lWVYqQs2sEhB_blUffIcIdShcnThFDGePGhRQG75HnG6dDeSTH-UMbzW4bJ-v4g"}], "name": "Asense Interior", "id": "21f0aa5c0b45a57ba0ecf6e0bcc42bb31c013950", "rating": 4.6, "vicinity": "129, Siddapura, Whitefield, Bengaluru, Karnataka, India, Varthur Main Road, Bengaluru"}}, "77.728": {"ChIJAxWihRMSrjsRFjjLYqSOTes": {"icon": "https://maps.gstatic.com/mapfiles/place_api/icons/generic_business-71.png", "geometry": {"location": {"lat": 12.9542437, "lng": 77.7283218}, "viewport": {"northeast": {"lat": 12.9555926802915, "lng": 77.72967078029151}, "southwest": {"lat": 12.9528947197085, "lng": 77.72697281970851}}}, "place_id": "ChIJAxWihRMSrjsRFjjLYqSOTes", "name": "Gurukuls GO Karting", "types": ["point_of_interest", "establishment"], "scope": "GOOGLE", "photos": [{"html_attributions": ["<a href=\"https://maps.google.com/maps/contrib/105035991383317934369/photos\">Bipin Dixit</a>"], "width": 1280, "height": 853, "photo_reference": "CmRaAAAA5DIA8j7TyPZ_3N5582zIC4pSVKtnY6O8ZTLHXveOGqe0Pz8WcO7G_OOorSOvUsbpUb-BATHyjN7erudECVEwmhBMSnAeiXj0RqJVgTPV1ovc3AomtqPiugEQDYoknrAlEhDwAH3ZCWSfrJPucn0cuxoHGhQKNzNdt7kHXfOBnwF5gyCmWVhzbA"}], "id": "2b706f38869092299388973ab3095551da70aa8a", "reference": "CmRSAAAAjuY6Jxrjm3OigvPDYUcTTcudtCICiZSsngCq38IOwCBFEQlO_Tc3nwAr0Ie32dSDykzkXDgCDbLQQ25_udf1Nc7tS1M6fDjJpXs6cScrB0v4OBlrlWkfVlzGxHXz4iTIEhCR-pyQ4zq-ym20EjWR73pdGhRiurGjhqd-8uzyEw1ojigbYS__WA", "rating": 3.9, "vicinity": "Patel Narayanswamy Layout, Siddapura, Whitefield, Bengaluru"}}, "77.719": {"ChIJRbyp-T4SrjsRqulfnaYt0Rc": {"icon": "https://maps.gstatic.com/mapfiles/place_api/icons/lodging-71.png", "geometry": {"location": {"lat": 12.9539117, "lng": 77.7192467}, "viewport": {"northeast": {"lat": 12.9552606802915, "lng": 77.72059568029151}, "southwest": {"lat": 12.9525627197085, "lng": 77.7178977197085}}}, "place_id": "ChIJRbyp-T4SrjsRqulfnaYt0Rc", "name": "OYO 1350 Hotel Sherwood Suites-2", "types": ["lodging", "point_of_interest", "establishment"], "scope": "GOOGLE", "id": "bdc85b9680ba87d539e5f998f43d33779addbaab", "rating": 4, "reference": "CmRRAAAAWbgYHVliydrKcG5Gr_5fGVilBGYWr343LeY8Hb8_yeUoB40KuYGg_8hwlW3XgeTbLAsNE2DqwgWholhLfPxKaS9NbMNRFnsR_gfkm0deaswGcgBj29Q46zc-lO8auuDLEhCR_bk_-RzErv6Ifr8pq9unGhTDyfuGjFnJBvPbItpvdcuKSHiVQg", "opening_hours": {"open_now": true, "weekday_text": []}, "vicinity": "Block D, Vishnu Residency, Near Narayana E Techno School, Thubarahalli, Bengaluru"}}, "77.733": {"ChIJu-KyexISrjsRKtzEa6WKx5Q": {"icon": "https://maps.gstatic.com/mapfiles/place_api/icons/generic_business-71.png", "geometry": {"location": {"lat": 12.9544756, "lng": 77.7333798}, "viewport": {"northeast": {"lat": 12.9559247802915, "lng": 77.7345971302915}, "southwest": {"lat": 12.9532268197085, "lng": 77.7318991697085}}}, "place_id": "ChIJu-KyexISrjsRKtzEa6WKx5Q", "name": "Lake Mist", "types": ["point_of_interest", "establishment"], "scope": "GOOGLE", "photos": [{"html_attributions": ["<a href=\"https://maps.google.com/maps/contrib/114250728722291413501/photos\">Dibyendu Roy</a>"], "width": 2000, "height": 1500, "photo_reference": "CmRaAAAAs_b1y-nnhWyqJDme0U3WIG-x3H1s49ryMR6WxFhiAizA74Vo1-tNJ4nPM4pRb6jz4AP4ycOjA2dDcZYZjeRRvTaDZJiavhb2wZvmOSh_bC3UrZqA79r1uklRYH15x0lqEhBg2pzxQ93FCr8V4KbRpVl4GhQJ-vuZ667yXohINFEt34lJ7ZoCZA"}], "id": "a85495323196d923fbdbf8ddae7e1b7b1de47d6e", "reference": "CmRSAAAAPkbm4X5U5cROYFqnz4WSZmkMhxkRwxmVG57sjayPzoThafbKg_332dt10WJrNm2bOPompwv5Pj3fF0TJnVxD_EF8zQB02E_mycEHZyhCGxNpHboxdNT5hBPtve-o1ouaEhBel3xX83yjwY8CIyNqvfdXGhSUbV396Cywav0quidEje5d2Lh1uQ", "rating": 4.4, "vicinity": "Sy. No. 99, 5th Cross, 2nd Main, Ramagondanahalli, Opposite to Shell Petrol Bunk, Varthur Main Rd, Patel Narayanswamy Layout, Siddapura, Whitefield, Bengaluru"}}, "77.698": {"ChIJRQq9QcsTrjsRoqqIM3bK7N4": {"geometry": {"location": {"lat": 12.954488, "lng": 77.69812200000001}, "viewport": {"northeast": {"lat": 12.9557304802915, "lng": 77.69953668029152}, "southwest": {"lat": 12.9530325197085, "lng": 77.6968387197085}}}, "place_id": "ChIJRQq9QcsTrjsRoqqIM3bK7N4", "scope": "GOOGLE", "types": ["point_of_interest", "establishment"], "icon": "https://maps.gstatic.com/mapfiles/place_api/icons/school-71.png", "opening_hours": {"open_now": false, "weekday_text": []}, "reference": "CmRSAAAAwoOX85RMGP7B6DTu9Od9yliH7OsHLUPcQZIkFUIUoAsgmfCVeWHvgF0zBWmPzFJVbyAPdI2-KprPPSm_lqiP1tegroOkbv9VO5T1T7Icsg9B35weNjxQZf9S6BerRs6zEhAlFMFaQ1lRWD_De6QY6LWKGhQp4LB1en1nCQH3KX3F0Pceuslmcg", "photos": [{"html_attributions": ["<a href=\"https://maps.google.com/maps/contrib/101579665012998398225/photos\">Vepsun (Best AWS/DevOps/Python/Azure) Training in Bangalore</a>"], "width": 1280, "height": 720, "photo_reference": "CmRaAAAAfd7EVhffBJm3PB5cjCOoJo-0FJeZTUTVQbdF3b7fhaYPcJmeVjTm1eUJdXm08ElG0YfTd_VjtjvdZWLaVd6JNfq_slMTKzJeWttF7vBOdj9zvn7KIr4Py3DHDSvseVf6EhAiqNLvEbJJxyZ_CODR0kYTGhQ2NoRvV7mV15jwgA_0JXEHoT9R3g"}], "name": "Vepsun (Best AWS/DevOps/Python/Azure) Training in Bangalore", "id": "3035d2dde09e99c3fdc8251f73e6846239220de7", "rating": 4.8, "vicinity": "100 & 104, SR Aracade, 6th Cross, Thualsi Theater Road, Marathahalli, Opposite Viceroy Boulevard, Bengaluru"}}, "77.744": {"ChIJT98nGAoSrjsRiS7IM9-NBSg": {"geometry": {"location": {"lat": 12.9541419, "lng": 77.74392089999999}, "viewport": {"northeast": {"lat": 12.9554908802915, "lng": 77.7452698802915}, "southwest": {"lat": 12.9527929197085, "lng": 77.7425719197085}}}, "place_id": "ChIJT98nGAoSrjsRiS7IM9-NBSg", "scope": "GOOGLE", "types": ["grocery_or_supermarket", "store", "food", "point_of_interest", "establishment"], "icon": "https://maps.gstatic.com/mapfiles/place_api/icons/shopping-71.png", "opening_hours": {"open_now": true, "weekday_text": []}, "reference": "CmRRAAAAesus7fFxZBswlQYmCU15rJD2uRHsNnpwz9bAwYVkN6HJnz89gl-8yesKwsf-gHFfo7ygYVG7Nmi3O85iOgvrl51wnoWfTUrYbb57fe_UmZJYgeVY6xMiIbMXdFW9FIc7EhD1-BvLXdrIVvGdmmDF-OtfGhREku3_KIn0ZEyCHASxWJj_uRhDkQ", "photos": [{"html_attributions": ["<a href=\"https://maps.google.com/maps/contrib/102664825684175781302/photos\">Sabyasachi Das</a>"], "width": 4608, "height": 3456, "photo_reference": "CmRaAAAAQC0io0nCnVJhAIcD-dAvc45NUqxajneGDpLAQTPh0H9qImwLDXIqKCb_OVnFrhVS8eN2zPHhmfg8YdKtOwrHcCfm7IByjxZhDw_BAzT9PcgbGJx3AetFCYzrNEeNYIHDEhCW6Wo3mX6Y_04s1Tvw3KvXGhQ8oqvDk9TRDgIeW9WAlv-aKiSiZg"}], "name": "Godrej Nature's Basket", "id": "de124259dd418e62dd4cfd33538789219f2ab8f2", "rating": 3.9, "vicinity": "Ground Floor, SY No.32, White Field Main Road, Opposite Sigma Tech Park, Ramagondana Halli Village, Bengaluru"}}, "77.72": {"ChIJaVrWWD4SrjsROx9b2iygNaA": {"icon": "https://maps.gstatic.com/mapfiles/place_api/icons/school-71.png", "geometry": {"location": {"lat": 12.9542652, "lng": 77.72005779999999}, "viewport": {"northeast": {"lat": 12.9556502802915, "lng": 77.72137024999999}, "southwest": {"lat": 12.9529523197085, "lng": 77.71612044999999}}}, "place_id": "ChIJaVrWWD4SrjsROx9b2iygNaA", "name": "Narayana E Techno School", "types": ["school", "point_of_interest", "establishment"], "scope": "GOOGLE", "photos": [{"html_attributions": ["<a href=\"https://maps.google.com/maps/contrib/106062356109370061190/photos\">santosh kumar</a>"], "width": 1920, "height": 1080, "photo_reference": "CmRaAAAAKu_XzZtyMoSpJOV_fsPS0ZzdecQ4DwUOIDZlIP3MnjOt2tgIZB5Rztb09pXmQEds0S0PZOdtGYxyeMAm6CwZfNV-0pbRo8mufdtgFZN25B9vwM2C3PZxoMCWA0-Vbs4PEhAAm30j-ja7MsvHEEuzkRT2GhRQanr97UYmfk34j7Booxv74wg2_Q"}], "id": "26633a354a4475e1da0cf68eee86fcec00ab159e", "reference": "CmRSAAAABVKtBd2fL9mVLswyNabsbnfr2l-zCS2HJJgH-M___y9FdkTYOdbSbkif03ismsSd9TiDrxPH8ObygkNSY5se7ri9q_CgzmQG5UMVUQOfPDtwuvPPe4ThfnFpqf5hYfwPEhAIuw6p3ypB6lV1ATq5JLVYGhRAk_PoHGlnEGI327BkVnI0hug3Lw", "rating": 3, "vicinity": "Beside Sree Rama Samrudhi Apartments, Near Kundanahalli Gate, Marathahalli, Bengaluru"}, "ChIJrzK9Vj4SrjsR3FkqeEQ_I54": {"icon": "https://maps.gstatic.com/mapfiles/place_api/icons/lodging-71.png", "geometry": {"location": {"lat": 12.953795, "lng": 77.719731}, "viewport": {"northeast": {"lat": 12.9551439802915, "lng": 77.72107998029149}, "southwest": {"lat": 12.9524460197085, "lng": 77.71838201970849}}}, "place_id": "ChIJrzK9Vj4SrjsR3FkqeEQ_I54", "name": "ResortHunt.com", "types": ["spa", "lodging", "point_of_interest", "establishment"], "scope": "GOOGLE", "id": "6ee25a45f39de6180467d04c0eaa1dc697663403", "reference": "CmRSAAAACuNUupknDSHsbOa7ce1MNaSE_H4sLimQwQ8L0Lh3NAjAlnIex8q_j7myLbzL8wzdeX291rngZgrbQg0ueIWu_O1P_0k5AHOcQbOi91IyPD0dhBkIvbj1fooUQonytnHrEhABo5ff830oDuVvvjTTPk-RGhTiEhHxQwr_UU3y0uShiYLiPLHUKw", "rating": 2.4, "vicinity": "105 Vishnu, 5 th cross Rustum Bagh Old Airport Road, Bengaluru"}}, "77.7": {"ChIJFZe3pTQSrjsRfSB7bjfgE2g": {"geometry": {"location": {"lat": 12.9543235, "lng": 77.70020280000001}, "viewport": {"northeast": {"lat": 12.9557468302915, "lng": 77.70160818029152}, "southwest": {"lat": 12.9530488697085, "lng": 77.6989102197085}}}, "place_id": "ChIJFZe3pTQSrjsRfSB7bjfgE2g", "scope": "GOOGLE", "types": ["electronics_store", "store", "point_of_interest", "establishment"], "icon": "https://maps.gstatic.com/mapfiles/place_api/icons/generic_business-71.png", "opening_hours": {"open_now": false, "weekday_text": []}, "reference": "CmRRAAAAV6TcZD2_KhvaaC7Yoc6jT8tlwmorl7DSVwd63pES4WeGdqHLqGx6eLMDQWXz0rVeI97UeFGq5tT_RzMpMZi1j7v-q-Z8c3QDtuWVPRTrUEV_gyVI1G_s3HMyIj_-YrIGEhAaJkRdeTuz5IIy1D1sgJxUGhQzw5lR6VJ34iSkNJjOlvope6f2aQ", "photos": [{"html_attributions": ["<a href=\"https://maps.google.com/maps/contrib/108594043422390471674/photos\">Dinesh kumar J</a>"], "width": 4128, "height": 3096, "photo_reference": "CmRaAAAApOzLZekK0Q6ixBe9_R-YcJjOLuZKsKzXzrzcw1NJSJi5ZQEFGFgzwlKKvxiukL75Xyl4XPDyMyzovuL1lbL6ZGPZtdP98x3Df-8_NQ6SsOMdP4cHjB6f0thN7r89GH3yEhCPxPBDCF1Qaf31I65XlA37GhRjaeuZt7oWzhLeIbF1nw5YDuflUg"}], "name": "ESN Laptop Service", "id": "f2dc6b010f72fd546611b676ec4345c3913bece3", "rating": 4, "vicinity": "No: 93/5A, Suhas Complex, Outer Ring Road, Near Hometown, Marathahalli, Bengaluru"}}, "77.715": {"ChIJPf--FDkSrjsR9_wFTA6hr7Q": {"geometry": {"location": {"lat": 12.9544803, "lng": 77.7149075}, "viewport": {"northeast": {"lat": 12.9558292802915, "lng": 77.71625648029149}, "southwest": {"lat": 12.9531313197085, "lng": 77.71355851970849}}}, "place_id": "ChIJPf--FDkSrjsR9_wFTA6hr7Q", "scope": "GOOGLE", "types": ["dentist", "doctor", "health", "point_of_interest", "establishment"], "icon": "https://maps.gstatic.com/mapfiles/place_api/icons/generic_business-71.png", "opening_hours": {"open_now": true, "weekday_text": []}, "reference": "CmRSAAAAt24YKffNgHOMH5XsUfNyJcHnMLpzMADGxPrU66lzgdBBOfKV3Pz3ZbiOY3CcxGxR2D4MGXwMkr_ZpiPrFCyibOzEG6Xijyt9l-ONFECpFgHkHlUYORQx_OkY6cTBBnr6EhB7UDtmvTz11Ywmkhlpb1ItGhQ-OrPX_9qnSqmC-SrYCMhf3P_0qg", "photos": [{"html_attributions": ["<a href=\"https://maps.google.com/maps/contrib/110083735971553889909/photos\">32 Smiles Multispeciality Dental Clinic - Main Branch</a>"], "width": 4160, "height": 3120, "photo_reference": "CmRaAAAASumdhHYzZFr3j9YrpxyyfcWkym43kZrye07kloYlQd-XlxPJJCh9wzhvI_qkmfEtrfMTnFfwdKvruHsAozJKBRTZDrHS2U-YA36q7-levyidL3M1g6H2K_WgVdGMALk1EhAtswErGBNCNNyknn89HVeQGhRwHT_SFTqnDi1E5e0L8_E9UUoMZA"}], "name": "32 Smiles Multispeciality Dental Clinic - Main Branch", "id": "436b3a59e6a295fed9cdd9b3c64b5b7a27ce245b", "rating": 4.7, "vicinity": "No. 130, Green Garden Layout, Kundalahalli Gate Marathahalli Post, Bengaluru"}}}, "12.995": {"77.701": {"ChIJ0R2ujZ8RrjsRUU94DFmk_0k": {"geometry": {"location": {"lat": 12.9949354, "lng": 77.7006825}, "viewport": {"northeast": {"lat": 12.9959524302915, "lng": 77.7020331302915}, "southwest": {"lat": 12.9932544697085, "lng": 77.69933516970849}}}, "place_id": "ChIJ0R2ujZ8RrjsRUU94DFmk_0k", "scope": "GOOGLE", "types": ["store", "point_of_interest", "establishment"], "icon": "https://maps.gstatic.com/mapfiles/place_api/icons/shopping-71.png", "opening_hours": {"open_now": true, "weekday_text": []}, "reference": "CmRRAAAAoCRppiy8jD3JsdowjCvnTasOaOoMxIzXIUife76agMUQFMjU8_73OGEoSqH30V2B8g44eMM6ft2TP3jV_hZmQfumtVKcPJouQ4koiA9iZiWb_2aX5KRj4FtmZ9dI7C7_EhCfHqVqF7tLFWr5yiHp1VRUGhT4Mgpk-J7rWr33Zf-uqAKQd7A07w", "photos": [{"html_attributions": ["<a href=\"https://maps.google.com/maps/contrib/111326133061464815278/photos\">Nandi Vardhan Reddy</a>"], "width": 5312, "height": 2988, "photo_reference": "CmRaAAAAMoTvnpvM57HXx8qboQ3F7fxF4TmdgYP37m1RmMavJ9aHsX_fq4S8qqaOMoEOvwvI52YFX4uaNIMXdsb_CE5_HG-mlHGWq7I6tztjeyEMymgiapemJX71rrFlDwN927tWEhCaaNgXRXqGHk13ztvDfSOkGhTLDJR3rjh3Dik2gejw-_enyfagkA"}], "name": "Decathlon Whitefield", "id": "c7ebb29b6f7713c9cbd1c3bf452a141cd527fb0f", "rating": 4.4, "vicinity": "2/E1, Devasandra, ITPL Main Road, Near Phoenix Market City, KEB Colony, Whitefield, Industrial Area, Hoodi, Bengaluru"}}, "77.711": {"ChIJNdB1-5cRrjsRS6xQ7tldzyY": {"icon": "https://maps.gstatic.com/mapfiles/place_api/icons/civic_building-71.png", "geometry": {"location": {"lat": 12.9946409, "lng": 77.7113494}, "viewport": {"northeast": {"lat": 12.9959898802915, "lng": 77.71269838029151}, "southwest": {"lat": 12.9932919197085, "lng": 77.7100004197085}}}, "place_id": "ChIJNdB1-5cRrjsRS6xQ7tldzyY", "name": "400/220 K.V Receiving Station", "types": ["point_of_interest", "establishment"], "scope": "GOOGLE", "photos": [{"html_attributions": ["<a href=\"https://maps.google.com/maps/contrib/106273859430458349980/photos\">vinay kumar</a>"], "width": 4160, "height": 3120, "photo_reference": "CmRaAAAAyN5aGd__y1-1JWxq-tt31ydGvaMjOyBgRxa9UHo2dA3yfWt4EYNWUuaYRYUS2KxVjXl-u7KU-3mXPw_WJVD4TX53qo1yKDZLG0rz6krAYQNeXEPFDKz-j-M8pxzAqZdcEhCCzGnJjZj9GIWEaJylQJXAGhQPUOFeIBfXF6VKROxaPR08vsq7PA"}], "id": "d1f8deb306bd6942472d150bd97b7ddc4192bee8", "reference": "CmRRAAAAeqtf5PhkEHAavIv-q8z519Rq8dSyJVQqI7zfFpW2dIJc31oBtconiRq8_rLbHP-LX8H3Xbfaq7itwwUaNzR_umY9DCmrX09kKY3Ckb48-0ELU005jDjSrn_rygeG1P3vEhAh93WOe5FBCg_S7JxAmcz1GhS22sbfXYUjxMoMQGlQ42NDeq3Y8g", "rating": 4.1, "vicinity": "Krishnarajapura, Bengaluru"}}, "77.747": {"ChIJhwKDuB8OrjsRp9kJwRl7Xmo": {"icon": "https://maps.gstatic.com/mapfiles/place_api/icons/generic_business-71.png", "geometry": {"location": {"lat": 12.9951702, "lng": 77.74665}, "viewport": {"northeast": {"lat": 12.9965191802915, "lng": 77.74799898029151}, "southwest": {"lat": 12.9938212197085, "lng": 77.7453010197085}}}, "place_id": "ChIJhwKDuB8OrjsRp9kJwRl7Xmo", "name": "Web Space Centre", "types": ["point_of_interest", "establishment"], "scope": "GOOGLE", "id": "797d83a0d8eb2f8c4273ed27b9e43ce2833ee0b3", "reference": "CmRRAAAAa0uFiacIQDSfRdcQAGU56600xdfLbhPpTNkAxOYSTM1dfj-nKTA9UON-PIaie0tP9Xolo47eIRwA9D4XSOhFsk61kuhxpmSsal25CeteDANjIvhkljci_TAz6DCqGcOKEhDtAVqr-F0SvbZSDodSjEpeGhQRPoBcuoR2emQzxlI3nTLblxuDqA", "opening_hours": {"open_now": false, "weekday_text": []}, "vicinity": "Sadaramangala Industrial Area, Kadugodi, Bengaluru"}, "ChIJ22I9tx8OrjsRwUIJqwnbJBM": {"icon": "https://maps.gstatic.com/mapfiles/place_api/icons/generic_business-71.png", "geometry": {"location": {"lat": 12.9948461, "lng": 77.74690749999999}, "viewport": {"northeast": {"lat": 12.9961950802915, "lng": 77.7482564802915}, "southwest": {"lat": 12.9934971197085, "lng": 77.7455585197085}}}, "place_id": "ChIJ22I9tx8OrjsRwUIJqwnbJBM", "name": "Goodlines", "types": ["point_of_interest", "establishment"], "scope": "GOOGLE", "id": "7d1581b98810bd9806d66f527f5c60424b79a16b", "reference": "CmRRAAAAHsFSw66aC0IFyYwTdgHL_zfp2DUOy39FqT_hiWjUzR3-rjjA2cUqg14hpy218rM9azA3KRcqR7Yk7wDuxupW1OR0Jrhnq0LG1fJshoVqdhTDzbl6g8nWT_uJNvUb7f-lEhD17X314l0OLGJdZOFQowkdGhQ_Wle9p8pS5eePtGmPuYl9FddiHw", "vicinity": "Sadaramangala Industrial Area, Kadugodi, Bengaluru"}}, "77.702": {"ChIJB8pHjPQRrjsRRxrFs_XxYEA": {"geometry": {"location": {"lat": 12.9945497, "lng": 77.7018597}, "viewport": {"northeast": {"lat": 12.9963003302915, "lng": 77.7029639802915}, "southwest": {"lat": 12.9936023697085, "lng": 77.70026601970848}}}, "place_id": "ChIJB8pHjPQRrjsRRxrFs_XxYEA", "scope": "GOOGLE", "types": ["point_of_interest", "establishment"], "icon": "https://maps.gstatic.com/mapfiles/place_api/icons/generic_business-71.png", "opening_hours": {"open_now": false, "weekday_text": []}, "reference": "CmRRAAAA52y4e7rgqXs6rjEIVKcKKUjv9Y2upZVGq68HShhTk5CHmC2nnUX4VilyaSNvYeG40L47K7dNEEBfX0mFrd2_5XYa_xjMIxx6yBz7NPOe2Xk1ewO2NdBNuRE1BTi5ZRaOEhA_i-UbVNZlYj53gX3KJ4znGhRhG6VoSyQ9rgqGPy9BSDAj55a35g", "photos": [{"html_attributions": ["<a href=\"https://maps.google.com/maps/contrib/112639292090367460180/photos\">MADHU. H. O Hadikere</a>"], "width": 2340, "height": 4160, "photo_reference": "CmRaAAAAumt08xni6qG84e5_s8LpP_1m9wGcVgIFooOTvIPF6Qih0U3ziXgmEj5fwDVEYn-heXDCC772n1wmXj7tpkUZHwuYsIca_yqhUKHOZwgvnunUw9qzK_iOVpDtWjZtLd-oEhAG28bGifcqt7BFSGZERyM2GhS4uShiDZbCIR9QTWH08djNFKW8yw"}], "name": "P3 Consulting Engineering Private Limited", "id": "550accede46e14a4373a37c001e240d88037e318", "rating": 3.9, "vicinity": "5th Floor, Xylem, Plot no 4 & 4A, Dyavasandra Industrial Area, Mahadevapura Post, Bengaluru"}, "ChIJneJyGTYRrjsRJfyN5583UDY": {"geometry": {"location": {"lat": 12.9946215, "lng": 77.7016506}, "viewport": {"northeast": {"lat": 12.9963201802915, "lng": 77.70285768029152}, "southwest": {"lat": 12.9936222197085, "lng": 77.70015971970851}}}, "place_id": "ChIJneJyGTYRrjsRJfyN5583UDY", "scope": "GOOGLE", "types": ["point_of_interest", "establishment"], "icon": "https://maps.gstatic.com/mapfiles/place_api/icons/generic_business-71.png", "opening_hours": {"open_now": false, "weekday_text": []}, "reference": "CmRRAAAA-q1Bh9txtev9hUKBihN8iyLbNFrP8LRs5Ngaz4qtNfqAnYShsuSIEHj0aMS334luj-N0q4-FoDlGPapEmI061HWWhneengMGh2p2wvhy0dBZZvnm49BnfoOYG6-n78agEhAki_UYSbaC8mTt24p-wkt3GhSRHw7pRjBqC1TaOgobT6J7RlehKw", "photos": [{"html_attributions": ["<a href=\"https://maps.google.com/maps/contrib/107833704785541807080/photos\">ThiruMurugan R</a>"], "width": 4160, "height": 2340, "photo_reference": "CmRaAAAAQ5I1NEKZvplp-QUTghpSK1zSL-qve0UCY29l-I-sUlV1ZW5SoTTzEn-y_jcExG5tn7903qv5RCP5H2nWwit7tkJDRx3NDAL2XVtQHQD5gZn_WiQkA4b7dmu3TUWuLwCQEhD1nva9k7R3A8nppACt_bMRGhRTh4KWkLN__BgxuXu3jw21MHLnSA"}], "name": "Airbus Group India Private Limited", "id": "39964cbbc44566fa67eece9b5fb7051dae13337e", "rating": 4.2, "vicinity": "4th Floor, Xylem, Plot No. 4 & 4A, Whitefield Road, Dyavasandra Industrial Area, Mahadevapura Post, Bengaluru"}}, "77.7": {"ChIJDelwDaARrjsR_NSq7jarkFo": {"geometry": {"location": {"lat": 12.994765, "lng": 77.70000950000001}, "viewport": {"northeast": {"lat": 12.9959027802915, "lng": 77.7015548802915}, "southwest": {"lat": 12.9932048197085, "lng": 77.69885691970849}}}, "place_id": "ChIJDelwDaARrjsR_NSq7jarkFo", "scope": "GOOGLE", "types": ["point_of_interest", "establishment"], "icon": "https://maps.gstatic.com/mapfiles/place_api/icons/generic_business-71.png", "opening_hours": {"open_now": false, "weekday_text": []}, "reference": "CmRRAAAAn444bfEixiTbmEYJtIAP8GNsiqMkJfn3qZx7D8FOw7qn_bU-8MUSPaEwaF1cQOY8eqwnyRuwoJIJXUasHVkQDEuyWLnu62u2UetcBVZROlCAydaZxiLzABLktUl80QZ3EhDeg2uQHdC72Jjk60yltum_GhQqwQx92GHdAVsL937gnoh3tgm0Rw", "photos": [{"html_attributions": ["<a href=\"https://maps.google.com/maps/contrib/110185257026142019380/photos\">V.S.T Tillers Tractors Ltd</a>"], "width": 1500, "height": 1001, "photo_reference": "CmRaAAAAL13wZwDKj0ZkBCEE7uJU08Z2N734S5igAC7evsXY4NKHB32YmgFnMfPTvK4e3cqOGeGGbKOqKH_HAJbcEyKTZ4ZTLCw1eVN2X9v3apSGOmipKQwCGcWIPy2lPOLsbKQeEhAJjReZy1YxsMNbH3cPL8nBGhQzC-YaJ3bSTTa4d6qzLot0ujPf2A"}], "name": "V.S.T Tillers Tractors Ltd", "id": "fbaec438e8bc4d385dc3b40b2f91bddeaeceea91", "rating": 4.3, "vicinity": "Plot No- 1, Dyavasandra Industrial Layout, Whitefield Road, Mahadevapura Post, Bengaluru"}}, "77.696": {"ChIJLTz5TgsRrjsR681QBJgGjJ4": {"geometry": {"location": {"lat": 12.9948292, "lng": 77.6959241}, "viewport": {"northeast": {"lat": 12.9964147302915, "lng": 77.6974060302915}, "southwest": {"lat": 12.9937167697085, "lng": 77.69470806970848}}}, "place_id": "ChIJLTz5TgsRrjsR681QBJgGjJ4", "scope": "GOOGLE", "types": ["point_of_interest", "establishment"], "icon": "https://maps.gstatic.com/mapfiles/place_api/icons/civic_building-71.png", "opening_hours": {"open_now": false, "weekday_text": []}, "reference": "CmRSAAAAq1yA83dpho2MU5oGBmKdXghNoGxN6woNNTS1nTwPUt-0ShucQnCMTP-PJOwDA8OFOMUVKuc59tM8ZEkj5JdcguzPzUq_9A5PgwkpfPu7iDoJ6l52hetPG_bOkCDLCNIzEhDln5cfwhZxB_DzXIePIRlMGhSUIEiakIMQwdI_lUz3Fo-CMcQXNg", "photos": [{"html_attributions": ["<a href=\"https://maps.google.com/maps/contrib/114018358482471281190/photos\">Rajkiran K</a>"], "width": 3280, "height": 1840, "photo_reference": "CmRaAAAAHCJ5wj3O-ZKJWc4RvML8RDguzqxuddKOyorjAwdFMraa_I332taanRG0zOm308pF7f6HeD9fPh3p0q8W2NiHUuO7GQ5Q3DfnpZBXXnZQidwOVvcb3w7yxfkmUOv8qR-GEhA9JPUhM2QbsyQmEBZMweg8GhQMUzjcrV-Cb4yJyXsN6It1Rl9_oA"}], "name": "Bruhat Bengaluru Mahanagara Palike", "id": "716cc621dfa66e18e703c091fc6448cd3f1df676", "rating": 3.8, "vicinity": "Whitefield Main Road, Opposite Phoenix Marketcity, Mahadevapura, Bengaluru"}}, "77.746": {"ChIJD0-7EQMOrjsRyrvgQv9WhTo": {"icon": "https://maps.gstatic.com/mapfiles/place_api/icons/generic_business-71.png", "geometry": {"location": {"lat": 12.9954534, "lng": 77.7461813}, "viewport": {"northeast": {"lat": 12.9968023802915, "lng": 77.74753028029151}, "southwest": {"lat": 12.9941044197085, "lng": 77.7448323197085}}}, "place_id": "ChIJD0-7EQMOrjsRyrvgQv9WhTo", "name": "Supraveni Chemicals Pvt Ltd.", "types": ["point_of_interest", "establishment"], "scope": "GOOGLE", "id": "e73dcfb5b748aca5ce1c2e13a71d99b6453814d3", "rating": 5, "reference": "CmRRAAAA4Qvmg9a5MN7ceqD3tnMqk7X0oAcWF1I1kPLz6iRkbjE8YjQK0jbs3KE8oS3rhxP3uE3QxrOrNj92ehvFwK75HZbsy52gD_hjbicjxmf_3Wfb5AgHhqI3eRckLcmZqHsJEhDP9fYFD1ME6G2bqGcWXBgCGhSceJp53rTKhYqKvOg4_pbwltkXog", "opening_hours": {"open_now": false, "weekday_text": []}, "vicinity": "Plot No. 8C1, 2nd Cross, KIADB Indl. Area, Kadugodi, Bengaluru"}}}, "12.97": {"77.7": {"ChIJl3uP7MwTrjsRSJjyk5nF3Rc": {"geometry": {"location": {"lat": 12.9698318, "lng": 77.7003108}, "viewport": {"northeast": {"lat": 12.9711807802915, "lng": 77.70165978029151}, "southwest": {"lat": 12.9684828197085, "lng": 77.6989618197085}}}, "place_id": "ChIJl3uP7MwTrjsRSJjyk5nF3Rc", "scope": "GOOGLE", "types": ["bank", "finance", "point_of_interest", "establishment"], "icon": "https://maps.gstatic.com/mapfiles/place_api/icons/bank_dollar-71.png", "opening_hours": {"open_now": false, "weekday_text": []}, "reference": "CmRRAAAAs4QjHsM011OWK4O2iqFD5WDIzeHyXLRqKKkOzzs5_QMjnq-R6jx9GHgzg9igXrfvpCqBWbZ6rcj7KJHCWz24kuge1dwQ2lcRRPwztoDoxDVY85pOgCdmMOmDUTb3X9DsEhAX0fyG0lS3eZOvgS1Sr4HxGhQ-mW8B5BdU-zFbrELmWaM1rX-SUw", "photos": [{"html_attributions": ["<a href=\"https://maps.google.com/maps/contrib/116869254352908455972/photos\">Arun J</a>"], "width": 4160, "height": 3120, "photo_reference": "CmRaAAAALqHPnatdHskTHekPmCjQlLNbZqnCzF6qf6u5RHcgsNmVYGy2y2PPOz6D4AF-LRAA3GKlqJtJAFy9XItdHU3fj8OiFWMJgQC5PHh6HO0a5n-kntGWi8SqPV56_1AYse2OEhChiXKA2bnOtXbJNcLRbUpqGhRKY3EcE895sZvXHXQyOaR9Kg7imA"}], "name": "Axis Bank", "id": "711d5b980cd8797dee11acfff9d283b21913cf22", "rating": 3.6, "vicinity": "SITE 43, VARTHUR MAIN RDMARATHAHALLI, Bengaluru"}}, "77.75": {"ChIJC_mFuf4NrjsRy2RcQ7CArkA": {"geometry": {"location": {"lat": 12.9698821, "lng": 77.7497233}, "viewport": {"northeast": {"lat": 12.9712310802915, "lng": 77.75107228029151}, "southwest": {"lat": 12.9685331197085, "lng": 77.7483743197085}}}, "place_id": "ChIJC_mFuf4NrjsRy2RcQ7CArkA", "scope": "GOOGLE", "types": ["bank", "finance", "point_of_interest", "establishment"], "icon": "https://maps.gstatic.com/mapfiles/place_api/icons/bank_dollar-71.png", "opening_hours": {"open_now": false, "weekday_text": []}, "reference": "CmRRAAAA1FPH_9Xi9WPxGYu-u8gycGZChujRqx2lHwVs9JEWLlSTxCKWKSIoPFN3IIsYt0ZXum14LWp1el0GgkMBJ3rchLH-TKTq5NR08ToCn84IKBIC6n6HQtC1R9_rdbUUTojcEhAOLa3K3S5ZuQvE8iX3ydpsGhQ0VVb5dElJRdYWv5lXq1S8wV2kiw", "photos": [{"html_attributions": ["<a href=\"https://maps.google.com/maps/contrib/101160447758941087946/photos\">naveen r</a>"], "width": 2381, "height": 1038, "photo_reference": "CmRaAAAA3rYygbvZNM5M5FCl4GY-oGhMP0Nuit55Jt89y7xxVCMkavYDThuopQkxVs8RPSdP7zUvtT5LQvW_wW6tuJFdM5gzgSxwXLKuOkGFezGhPh3ZCtf2_mQGUFo1Fo3TF3A_EhBuyFZ-4jg9C4FjPCWg5luRGhQY7A5qnLGrNbxthmGbhxbvP8sbKw"}], "name": "City Union Bank", "id": "beb9aac80e619581c8710795cf6eb0cf31268cd4", "rating": 4.1, "vicinity": "295, 1st Floor, Whitefield Main Road, Opp Mayura Bakery, Whitefield, Bengaluru"}, "ChIJXQc0T_YNrjsRP9IMvo6NhwI": {"icon": "https://maps.gstatic.com/mapfiles/place_api/icons/restaurant-71.png", "geometry": {"location": {"lat": 12.9697999, "lng": 77.7499468}, "viewport": {"northeast": {"lat": 12.9711488802915, "lng": 77.75129578029151}, "southwest": {"lat": 12.9684509197085, "lng": 77.74859781970851}}}, "place_id": "ChIJXQc0T_YNrjsRP9IMvo6NhwI", "name": "Daily Bread Gourmet Foods (I) Pvt Ltd", "types": ["bakery", "store", "food", "point_of_interest", "establishment"], "scope": "GOOGLE", "id": "227b5c321652a729ce6e3794b0d06fc9fb07f59c", "reference": "CmRRAAAAqw_oV6cVVK9zSD6Ux7lefQNM9XQPudw5akgx_j-dUhfpvDRsWxL_xBQLBdyEHagNx-fyLLkiiXxxVgQJkzZvMtgTdV3xZ-Y7sXaki2x1ldCtJUaZH5oYzP0Op9-NMXALEhBV4pRhED8_avdFfMGnBGfsGhTHv8NK-MXvn4Nu8nHj5oosINgJFQ", "vicinity": "Forum Value Mall, White Field Main Road, Near-B B M P Whitefild, Whitefield, Bengaluru"}}, "77.701": {"ChIJvw1JITUSrjsRQRm0JCcdH7g": {"icon": "https://maps.gstatic.com/mapfiles/place_api/icons/school-71.png", "geometry": {"location": {"lat": 12.9700896, "lng": 77.7007091}, "viewport": {"northeast": {"lat": 12.9714385802915, "lng": 77.70205808029151}, "southwest": {"lat": 12.9687406197085, "lng": 77.6993601197085}}}, "place_id": "ChIJvw1JITUSrjsRQRm0JCcdH7g", "name": "Serra International Preschool - Marathahalli", "types": ["school", "point_of_interest", "establishment"], "scope": "GOOGLE", "id": "5ca5850b96c4a7143cee922f69dce0a7da3704f1", "rating": 5, "reference": "CmRSAAAAcvWyfWUGuk64c6PmoVgnK1r2BfECad2k3v3oQwbWjIG3xR_ILw-j_2tLuG3kgyfXsc8UdIutWGy_p6aKON2Fqyp5k_sw7D4-_EDFNMBptCA69h4oqJU92oQK08MOG23aEhA54pnqDKEZtIxp1wGR5XLNGhTU9JM-pFS04pGx7Mr9WYxicKfPhA", "opening_hours": {"open_now": false, "weekday_text": []}, "vicinity": "#73, Krishna, LRDE Housing Colony, Karthik Nagar, Doddanekundi Village, Marathahalli (Outer Ring Road), Bengaluru"}, "ChIJ2___5CoSrjsRhNCGuKkHe_Y": {"geometry": {"location": {"lat": 12.9704269, "lng": 77.70061609999999}, "viewport": {"northeast": {"lat": 12.9717758802915, "lng": 77.7019650802915}, "southwest": {"lat": 12.9690779197085, "lng": 77.69926711970848}}}, "place_id": "ChIJ2___5CoSrjsRhNCGuKkHe_Y", "scope": "GOOGLE", "types": ["school", "point_of_interest", "establishment"], "icon": "https://maps.gstatic.com/mapfiles/place_api/icons/school-71.png", "opening_hours": {"open_now": false, "weekday_text": []}, "reference": "CmRSAAAAWPoUtGiAZa9qcQj2HoFuZtx-BOdNiaq_mv8cVLWK6OkOabac6NTZCBVAyIKq6kAT4vE96xSFJVbdOXaLPsjvkE-3tolu7mBRX1nnYl5aZe347r_nxDEVt5-Frl1yf4w1EhDkZcg1nsa3SRPrKGTzuWNzGhSbz6JLXPmA6VMdv8fjqD3qI2-W6A", "photos": [{"html_attributions": ["<a href=\"https://maps.google.com/maps/contrib/108145724462082722925/photos\">Kumar</a>"], "width": 3120, "height": 4160, "photo_reference": "CmRaAAAAe7hkZlu19T8XuCWteKsi4ldR8d-vcVtt5mtmq0CWLFSd-3wDLcmFMqezlW__ZwWz5BQfXCPedQ-J1W07c40Wj-FDz8A7Vm__lGcjDP7xf9_XK33z9GUhLF7CYsS4zYSPEhCuVho68ySTniLo9VYSZD87GhQ5BVI3vbC-uYi3sgx-B7ULztkJDg"}], "name": "Atlanta Montessori School", "id": "b7251e72cb6f4c6fa7d92f2e0c538d8b81b1027f", "rating": 4.5, "vicinity": "Outer Ring Road, Marathahalli, Bengaluru"}}, "77.736": {"ChIJ4U0GagMSrjsRqsNp4b0ZpqU": {"icon": "https://maps.gstatic.com/mapfiles/place_api/icons/generic_business-71.png", "geometry": {"location": {"lat": 12.9699312, "lng": 77.73557679999999}, "viewport": {"northeast": {"lat": 12.9712801802915, "lng": 77.7369257802915}, "southwest": {"lat": 12.9685822197085, "lng": 77.7342278197085}}}, "place_id": "ChIJ4U0GagMSrjsRqsNp4b0ZpqU", "name": "Sirkus Systems IT Services Pvt Ltd", "types": ["point_of_interest", "establishment"], "scope": "GOOGLE", "photos": [{"html_attributions": ["<a href=\"https://maps.google.com/maps/contrib/112310493991911321183/photos\">Sirkus Systems IT Services Pvt Ltd</a>"], "width": 1200, "height": 675, "photo_reference": "CmRaAAAABWNJUxgSCQNzbsEGPwN7oaZ90JPZhqYQ2hMnlCtVdukzjBTFJxIfN6gButGKnz5Vlu4fICMjC_61VneyE2q6IuBp38QJaf8pfPrNESuFzaPeVwSWHkEpskYW6K7FZue2EhB73fB_fBmSx94eiZn4xQrGGhTQtDIZT34E_Afs6mrkmZMLNn2AiA"}], "id": "2c2176bbd437677aa8d800c5479ff751992caa27", "reference": "CmRSAAAAKWOgfvldkLWPfzC8K02cQJB0_5g066bKT3ufXUNRpWK91Pd4_R9en_Mj4AMxIzrvJX3jww1FcdfDadgZvd8FmqBwooGT3RnBSg4JVwCxO0yq87V4DAQpdZaUMeRL0DhwEhCEzLHqeM91w0droPXg3KFdGhSMte5-Te05IAtmYF1YEkUEN8A8Sg", "rating": 4.1, "vicinity": "The Twin Oaks, #1/5, Nallurahalli Jn, Whitefield,, Beside The Whitefield Market,, Bengaluru"}}, "77.735": {"ChIJ8SWYFAMSrjsR6GKDnfcNGiU": {"geometry": {"location": {"lat": 12.969717, "lng": 77.735446}, "viewport": {"northeast": {"lat": 12.9709776802915, "lng": 77.7368143802915}, "southwest": {"lat": 12.9682797197085, "lng": 77.73411641970849}}}, "place_id": "ChIJ8SWYFAMSrjsR6GKDnfcNGiU", "scope": "GOOGLE", "types": ["grocery_or_supermarket", "supermarket", "store", "food", "point_of_interest", "establishment"], "icon": "https://maps.gstatic.com/mapfiles/place_api/icons/shopping-71.png", "opening_hours": {"open_now": true, "weekday_text": []}, "reference": "CmRRAAAAyPbEG8nh5tizVArFdus6sTLQ4HucEUrSdzq9wiRLAmMmyQLloB_59zEYpoHLYPp9XHmXcKnoweSDLtC7LioBAzxID7b6F27luU890gU8Q212BJP4fo3g_2zMfsWGdE9lEhCCumH70itSDRmeXyopSLWwGhS7MQ5qJKXaWk2c3Rg-be4SJqwyFQ", "photos": [{"html_attributions": ["<a href=\"https://maps.google.com/maps/contrib/109541426803824842030/photos\">Rajat Gupta</a>"], "width": 3328, "height": 1872, "photo_reference": "CmRaAAAAlkVE3wV3aFglmvskP8UyHvbjQ7rX0bqWSIRvz7fHsT--dhQOAE1-SVgAFVFdL-RK67NX-5kDlBuoheNzMTZkpmvJymHbYb4XJPnyWEqkGnoTnGNzbP_h_53tBjbF9oSBEhA9iZ0D9vGctJ_2KX3iIcxfGhTeh8N3ZUaXzaS5-O8CqGofDQ6mLw"}], "name": "The Whitefield Market", "id": "c83c7fcdbe5c72dabffa0ee1c32818ed0d122740", "rating": 4, "vicinity": "Nallurahalli Jn,, Nallurhalli, Whitefield, Bengaluru"}}, "77.743": {"ChIJp9MjgQASrjsRQSYJbqjl4Ag": {"icon": "https://maps.gstatic.com/mapfiles/place_api/icons/lodging-71.png", "geometry": {"location": {"lat": 12.9704794, "lng": 77.74268130000002}, "viewport": {"northeast": {"lat": 12.9718283802915, "lng": 77.74403028029151}, "southwest": {"lat": 12.9691304197085, "lng": 77.7413323197085}}}, "place_id": "ChIJp9MjgQASrjsRQSYJbqjl4Ag", "name": "AKSAA Elements , Whitefield, Bangalore", "types": ["lodging", "point_of_interest", "establishment"], "scope": "GOOGLE", "id": "bd4242a7bdc6e5ab67b83607d9657a92cc0e28b4", "reference": "CmRRAAAA86TJvLBsBEVYqdiM0LZfwFW59eW9jwaO39peNZ5RpTSdwbf9lW6vZQQPZM8S4E6LPZ0yt8rL42Kxu4LQ1RaQC041WWp-8VtH3SQoMr6vXXiUk_hjzVahLz1xQv9KiwGpEhADVMeRKGvsPIcXBi0GN_NaGhQxB7M6opDzjenq1hmUAA5FGf-pRg", "rating": 1.6, "vicinity": "46, 5th Cross Road, Dodsworth Layout, Whitefield, Bengaluru"}}, "77.731": {"ChIJ6SsE-BwSrjsRf9kTjLMQgMU": {"icon": "https://maps.gstatic.com/mapfiles/place_api/icons/generic_business-71.png", "geometry": {"location": {"lat": 12.9700554, "lng": 77.731055}, "viewport": {"northeast": {"lat": 12.9716910302915, "lng": 77.73270495000001}, "southwest": {"lat": 12.9689930697085, "lng": 77.72984595}}}, "place_id": "ChIJ6SsE-BwSrjsRf9kTjLMQgMU", "name": "Brigade IRV Centre", "types": ["point_of_interest", "establishment"], "scope": "GOOGLE", "photos": [{"html_attributions": ["<a href=\"https://maps.google.com/maps/contrib/116939328885011297349/photos\">Kishore Reddy</a>"], "width": 4128, "height": 2322, "photo_reference": "CmRaAAAA2vqgzmbEiQZPg0pdWeETnJFNGGKmv6IOxt8Lr_pCiN-5F33VueHjt9NIOgs40s0PLJOuYDLUo-9byhiSR5H6FLX03BTQgaP7qrNb9WuWs8_NkZB3TT4fKkm4XNZe5z8sEhCscng2SGwUPS3knMkk38xkGhQm29PEsV404zJhhJg69rm6PcWCQA"}], "id": "4a524288c2b2feb280d278a2ab318a54405fbfa7", "reference": "CmRSAAAAhQxD99oZAlSBZtH6esqAhXOLqE_0nuTrEpvWSxdzL1RL6HW0ajWhBOfc5rBe6sh5wvXhpcylVdsCkKbTr-qOlo6MHvE4EUD2VUtkPUxIX8YZHTAtTg_R2Q_DzyZhxY9dEhCCi4rQs0D56tLONCr7fUMEGhRWhrgkNUR56m7FyTZ5TomP1CGmfA", "rating": 4, "vicinity": "Nallurhalli, Whitefield, Bengaluru"}}, "77.737": {"ChIJDdrCnQMSrjsRU9SyDutdfYU": {"geometry": {"location": {"lat": 12.969508, "lng": 77.736736}, "viewport": {"northeast": {"lat": 12.9707488802915, "lng": 77.7380881802915}, "southwest": {"lat": 12.9680509197085, "lng": 77.73539021970848}}}, "place_id": "ChIJDdrCnQMSrjsRU9SyDutdfYU", "scope": "GOOGLE", "types": ["atm", "finance", "point_of_interest", "establishment"], "icon": "https://maps.gstatic.com/mapfiles/place_api/icons/atm-71.png", "opening_hours": {"open_now": true, "weekday_text": []}, "reference": "CmRSAAAAzIspV-Honp3ACluXRL74uWkmhUEAAGlU7GC3RtCHhUCOLCf3ZygEkqERNzkr1PClYAOoOIPpG2BO7ZQk_bxtv5XxGx_5Jnh1JbWlRfUDo-WHSqxmLdd5QObLqU3zaj5nEhBdRFz4PxkTDf9vKI3x5sCkGhQHZ9OepEKjufru7mPd-wqnqsCzDw", "photos": [{"html_attributions": ["<a href=\"https://maps.google.com/maps/contrib/116869091064335399414/photos\">BK Gajendra</a>"], "width": 1872, "height": 3328, "photo_reference": "CmRaAAAA_NYIIuZE9QZ_R2pNknrF3PBO21K3zIX6A64jZmq2kElNOy47AZiUSh9E8qDxH8-END9TfeaLXzBAH4A85_oetM51u9VD5nygsKfxK_J4eMlsGwZFyWcoQb1gjKRZQR-wEhBqg-AU9vRhgCNpO3XubKrMGhSH7D__nA8pIB-dosNIqoQFfxn1Cw"}], "name": "Axis Bank ATM", "id": "2ac1b7ed243a3fd8da618d769dedc0c36d04e9af", "rating": 4.2, "vicinity": "Borewell Road, Nallurhalli, Whitefield, Bengaluru"}}}, "12.948": {"77.719": {"ChIJzSy14kASrjsRddX0r7FhaJ4": {"geometry": {"location": {"lat": 12.9483479, "lng": 77.7185196}, "viewport": {"northeast": {"lat": 12.9497838802915, "lng": 77.7196352302915}, "southwest": {"lat": 12.9470859197085, "lng": 77.7169372697085}}}, "place_id": "ChIJzSy14kASrjsRddX0r7FhaJ4", "scope": "GOOGLE", "types": ["school", "point_of_interest", "establishment"], "icon": "https://maps.gstatic.com/mapfiles/place_api/icons/school-71.png", "opening_hours": {"open_now": false, "weekday_text": []}, "reference": "CmRSAAAA1squod7CqXZIasTx6w1MhDYUUajfJzInH1qQpdoQEW_gmMbFnqWLaZB7x72TDMIn5Z2d2wPQGn2-TbO8_C5KNza8y9g-n-8fLwJxbn0DGpraukZegsCxpceeH9E66vWnEhAvyAlcLuyJ7lmrEuIQqNIHGhTDbi5xnPTmisDppOI5xRP6WoZpHw", "photos": [{"html_attributions": ["<a href=\"https://maps.google.com/maps/contrib/110261983368755172034/photos\">VIBGYOR High School, Marathahalli</a>"], "width": 800, "height": 534, "photo_reference": "CmRaAAAAeryqTksBu1UeHjsqK74b7d7x4EyosYtmYIWNinlkvX-aQxfq6cVJw4ieEV293eq-5t9xoPUAtYZzvNc3iPZFedSBmaWf5GiQdAFS4rpOLA7UpTa1i82gXZ961BOb8n3eEhAHWe1KA24pQbCquw1OlYBpGhTg4eaAZc0vn0TROiL7nj3Owfmseg"}], "name": "VIBGYOR High School, Marathahalli", "id": "9bbefde68ed2d1897faf4c947139f5314fa3b68d", "rating": 3.1, "vicinity": "58/ 1, Thubarahalli, Whitefield Road, Behind Sriram Samriddhi Apartment, Bengaluru"}}}, "12.983": {"77.694": {"ChIJUTOfHnoRrjsR9l7FvFEPwh4": {"icon": "https://maps.gstatic.com/mapfiles/place_api/icons/generic_business-71.png", "geometry": {"location": {"lat": 12.9826142, "lng": 77.6939192}, "viewport": {"northeast": {"lat": 12.9839631802915, "lng": 77.6952681802915}, "southwest": {"lat": 12.9812652197085, "lng": 77.69257021970849}}}, "place_id": "ChIJUTOfHnoRrjsR9l7FvFEPwh4", "name": "Mphasis", "types": ["point_of_interest", "establishment"], "scope": "GOOGLE", "photos": [{"html_attributions": ["<a href=\"https://maps.google.com/maps/contrib/107833704785541807080/photos\">ThiruMurugan R</a>"], "width": 2340, "height": 4160, "photo_reference": "CmRaAAAAPleboMfwdB_BjDqxRIp1mRvPCqUOYz6FamwDuGQWMtEbkengMzUstaW3_PC_8VgGg_TxJqL2EM9xKpGuHacHdkWYyill5llHONF-uGUj8smiSjFsUZ0_d9CRndy8s5z_EhCyKPcC2Tx9TQu_KRhIpThRGhRUnhDy-Qv-aDTA0xuLAulLfJ3KBA"}], "id": "6e8b3a25e186e812255c6ee46b4017a156df4a52", "reference": "CmRRAAAAKdk23SiycsSZ_DVWQ337Okfyc9hhNlRa4TiyOwNHq1OGWF6UtKkwlzDlNT0WO3JxOxkdMpNbjbpwh023ykGoDaZR6y6zbkda2ArIR0Du4WLt_Z33Pvfd1rrBFwBDkRobEhCluWnRjiqyVTqDjSPmpThhGhSgeQhDriGNj22x5hS-3oN5n0euvg", "rating": 4.1, "vicinity": "Service Road, Laxmi Sagar Layout, Mahadevapura, Bengaluru"}}, "77.727": {"ChIJnTPAPvIRrjsRwQ3-Uh4T7Pc": {"geometry": {"location": {"lat": 12.9831395, "lng": 77.7267466}, "viewport": {"northeast": {"lat": 12.9842484802915, "lng": 77.7286270802915}, "southwest": {"lat": 12.9815505197085, "lng": 77.7259291197085}}}, "place_id": "ChIJnTPAPvIRrjsRwQ3-Uh4T7Pc", "scope": "GOOGLE", "types": ["point_of_interest", "establishment"], "icon": "https://maps.gstatic.com/mapfiles/place_api/icons/generic_business-71.png", "opening_hours": {"open_now": false, "weekday_text": []}, "reference": "CmRSAAAA4fn59GffBf8wrX1mHpAn3QJN-lE1cAAi2TLBaM9-Fl-6bcIw8Y2sEj5I0M6W6pgtv-yIzbpZ6TtsxfGy6MMDAZPKHQzFEjyfslKjamcyCHBQFkBcEZ1CI6bJK9OruFSpEhD3SLj-AQANyObsLO4LhXyOGhSDWKrfRCh98toT6LyI5ZBSZp181w", "photos": [{"html_attributions": ["<a href=\"https://maps.google.com/maps/contrib/113575986151519495513/photos\">Makino</a>"], "width": 2100, "height": 1050, "photo_reference": "CmRaAAAA3SWJEHyGuIiPRKX9fNQQO8q__O9HQO9Qe1PMTuw_qKPSYJCYVNZUfpiHNdsU9kgShlRzr5w1_sJP9FKrfLepiIOrYYLDDTtBbOYfV94ZfpweKDKyL1afo0LvT-lxGWuWEhBpE-Zzoe-K0R4F4spvU9x5GhQYfn8j8KuYvmGF1renxfeve9Ikjg"}], "name": "Makino", "id": "d633029c3fc24149b72b74ffe99c023110e5e743", "rating": 4.4, "vicinity": "11, EPIP Zone, Whitefield, Bengaluru"}}, "77.737": {"ChIJd65tHfsRrjsRd-g7JCZEzqA": {"geometry": {"location": {"lat": 12.9833483, "lng": 77.73680639999999}, "viewport": {"northeast": {"lat": 12.98568395, "lng": 77.73838219999999}, "southwest": {"lat": 12.98256975, "lng": 77.732079}}}, "place_id": "ChIJd65tHfsRrjsRd-g7JCZEzqA", "scope": "GOOGLE", "types": ["point_of_interest", "establishment"], "icon": "https://maps.gstatic.com/mapfiles/place_api/icons/generic_business-71.png", "opening_hours": {"open_now": true, "weekday_text": []}, "reference": "CmRSAAAAmD9Iek7QwKU8nAI0y-AmhO8PJsxSU3jI-YyCRhtDZiC99IdX5CAsdoTbpS6o8z-HqwhDoh6PEdr0HV7nsnW46JcnPJGqn1_mpzIh4Yw7JG4oGCHWxBpKS3Vz7LkqXTYBEhDV-aHIBsG7b2s0sponZ-QiGhT-7OG6s7ifv-P-c4S4UDyyU7jusA", "photos": [{"html_attributions": ["<a href=\"https://maps.google.com/maps/contrib/105148922920143426173/photos\">Guna Shekaran</a>"], "width": 3264, "height": 2448, "photo_reference": "CmRaAAAA4_dQ_oLjgPL7ctPL4fcH4VC-IPq5t_d_NfiJnDWteam_QC2Rene2bIO3RjZBs1rBcoOHvpH6qFiJXa_xFL0pUvntoVW4R340bm0xuLb8ZQysKOBIHV6iQJoTRNYcDt3BEhA9JDhdhxxph0JCKX2LhKpVGhTpHK1TeVKJHHHrNSoPB46i3Pl6Vg"}], "name": "Tata Consultancy Services", "id": "93251ee85c2fccbf2539d5ebd27129bffb332b09", "rating": 4.4, "vicinity": "Pioneer Building, Rd ITPL, Whitefield Main Road, Pattandur Agrahara, Pattandur Agrahara Road, Bengaluru"}}, "77.751": {"ChIJK0-BBAMOrjsRw5vaT4ZMICA": {"icon": "https://maps.gstatic.com/mapfiles/place_api/icons/geocode-71.png", "geometry": {"location": {"lat": 12.9834827, "lng": 77.75057269999999}, "viewport": {"northeast": {"lat": 12.985298, "lng": 77.75238}, "southwest": {"lat": 12.9816361, "lng": 77.74695799999999}}}, "place_id": "ChIJK0-BBAMOrjsRw5vaT4ZMICA", "name": "Prasanth Extension", "types": ["sublocality_level_2", "sublocality", "political"], "scope": "GOOGLE", "photos": [{"html_attributions": ["<a href=\"https://maps.google.com/maps/contrib/112690706374537471664/photos\">Shivakumar Koviri</a>"], "width": 3264, "height": 1836, "photo_reference": "CmRaAAAAAuYnAP9JKmgFHsb6UpyNYAxJ83g7hV4kfPmuiyADWvlDNE0DlHYn06d8vznbtnXY-yPL8aIvYNkG-Xa73v1XP83f0Xg8eV2-MzpyudOj3DdY6sdDRyRvVRnGYmhpDXj1EhBXBW34fb5XAlG6e0OmRwdAGhR4pKK3xWFz9Ato4fDLw-GCF6r9cA"}], "id": "8974fec74217017fa36a9112e641130efdb1b6c4", "reference": "CmRbAAAAPmLaOBTkKAZKdEFosZCg7ZsIzOUhJCurG_fxqHanOlutIQ4JNZJB8FipAtx1rDG7QGYmIPpkpLNYtuibdwylRoWeg2yKSuYH3mpEgopg8-UYxkNi85ox4NbPbV3F_MC5EhAkT-fR2qzOxJLOuw0-FuaIGhRPm4hZ0m4zwC46fJ-freCMAbQUPw", "vicinity": "Prasanth Extension"}}, "77.738": {"ChIJCeyD1-QRrjsRrlzwt96OBsM": {"geometry": {"location": {"lat": 12.9827611, "lng": 77.7382602}, "viewport": {"northeast": {"lat": 12.9841100802915, "lng": 77.73960918029151}, "southwest": {"lat": 12.9814121197085, "lng": 77.73691121970849}}}, "place_id": "ChIJCeyD1-QRrjsRrlzwt96OBsM", "scope": "GOOGLE", "types": ["point_of_interest", "establishment"], "icon": "https://maps.gstatic.com/mapfiles/place_api/icons/generic_business-71.png", "opening_hours": {"open_now": true, "weekday_text": []}, "reference": "CmRSAAAAgBb8ZZlMGNNVX9NfQGQhjEOzoBJSO_ogkumjT1DdfhYF0DDs5nm5sE2SaRa_MXzn2LYayG--Y4KCaEe6qW40WIf-MYu737Et0QytPzGNjghhqudRAkkoXkrLjgT_dYC4EhAGhM2jP_F3Mi8MXFWu6X6gGhT_0VpQdJ0mKcfTfUKsolMF4CaqmA", "photos": [{"html_attributions": ["<a href=\"https://maps.google.com/maps/contrib/117653598957721111737/photos\">Prabhakar P</a>"], "width": 3118, "height": 3120, "photo_reference": "CmRaAAAATtjlLbJXlKLiv0C9-cfkL3F6-ISYWkN0o2_9zxPdggWBMhH7EbkwVYlUjqEfGZc-ezkKQvbYwgl3S1CN0W2or2VzLnJadxgXoJQLqzrJbXVmZdJRqJLAWyXtYQgvPLSYEhAzRoKeQ9UuQTZF4Yi7uPhHGhQDNr91DsXoojs3xi-P69Az_hP8ow"}], "name": "Xerox", "id": "dccf48926835993edc8b9949fdd267d05ac6c2a7", "rating": 4.1, "vicinity": "Whitefield, ITPL Main Road, Bengaluru"}, "ChIJpZ_0wiASrjsREb0DfaH-ZtU": {"geometry": {"location": {"lat": 12.9827064, "lng": 77.7383459}, "viewport": {"northeast": {"lat": 12.99000615, "lng": 77.74070060000001}, "southwest": {"lat": 12.98027315, "lng": 77.7312818}}}, "place_id": "ChIJpZ_0wiASrjsREb0DfaH-ZtU", "scope": "GOOGLE", "types": ["point_of_interest", "establishment"], "icon": "https://maps.gstatic.com/mapfiles/place_api/icons/generic_business-71.png", "opening_hours": {"open_now": true, "weekday_text": []}, "reference": "CmRSAAAAf-49u71I_uEoSOlJnVmzt7Ef-Oa0CYdKCtZnRFozKCxvmOa81wwfcRFAYrw9MOYuE41R2AmWOJqi-qZezsOZfwtJxfY-1DIPahWs09fIEqI6BalPb6EMDKlPoOh5pm4FEhDHtK6WMdVZnff5ikOf3ik2GhQ_vrj82mmIss6gkqSsNgT93pZg-g", "photos": [{"html_attributions": ["<a href=\"https://maps.google.com/maps/contrib/113454428486434618563/photos\">Marikanti Dhanraj</a>"], "width": 4128, "height": 2322, "photo_reference": "CmRaAAAAI_4RZEOnp-UEoGDiWNdTqV6bQO_s-Bk11phTszWu68RS8q5g5d6wkEsPV0BVRNlhHLymzNevJrjrNb13vQ0pkvZALDoHUNnUUjd04Uio05X3xRMgrfx8Gs2AcghAOBQMEhDd85npHhMGitbuyEP3wr93GhRCpOlZRA2g-7vM5nIuaGiqfXWavg"}], "name": "Mu Sigma", "id": "46395141ddda9ad75ed7168e20b54a7b73d69893", "rating": 4.2, "vicinity": "Aviator Building, 7th - 14th Floor, Ascendas ITPL SEZ, EPIP Zone, Whitefield Road, Bengaluru"}, "ChIJycVIQOURrjsRRWBmjXiwcrY": {"geometry": {"location": {"lat": 12.9825247, "lng": 77.7376559}, "viewport": {"northeast": {"lat": 12.9838736802915, "lng": 77.7390048802915}, "southwest": {"lat": 12.9811757197085, "lng": 77.73630691970848}}}, "place_id": "ChIJycVIQOURrjsRRWBmjXiwcrY", "scope": "GOOGLE", "types": ["finance", "point_of_interest", "establishment"], "icon": "https://maps.gstatic.com/mapfiles/place_api/icons/generic_business-71.png", "opening_hours": {"open_now": false, "weekday_text": []}, "reference": "CmRSAAAAdF5adsBmN3MWaBw7qnBeRzRm_zgutijaFUFKzFzLMov9b_wDThRqDI1s4jjNYMBRkQrro7wzNxJbQjcOEC5kiDq7be38QrkLicDNcknNKdhejskUGyFjGzLtpxbcB4XsEhDOt6uCMPb9IVDlrXx7nAWYGhQIai5hVQeAer6nQDJNo5AiiyYQ_A", "photos": [{"html_attributions": ["<a href=\"https://maps.google.com/maps/contrib/109140376276158332257/photos\">BrucE WaynE DEEP</a>"], "width": 4032, "height": 3024, "photo_reference": "CmRaAAAAk5VvHwOCkWbmPrWBNYOs8g1PlK_s0rD94r-9ulcD4uwByxB22YMiTjdJ7I0osgtegQuWi2hM9NMYBYzjCyTeub-V45dsVuqMIa_gZzrTEAqr_lv9pkAygpS-S4RvtNNNEhB7vzWu3xxftO9Rq1ByD_JzGhTM75MAO2-eNAESiuE0LYZqGFzk3Q"}], "name": "Capital One", "id": "203c56cfdd982e4fc72aff84b049e8e50ef497ec", "rating": 3.7, "vicinity": "Pattandur Agrahara Road, Pattandur Agrahara, Whitefield, Bengaluru"}}}, "13.002": {"77.726": {"ChIJ9y4Z28ARrjsRlNd-Rrlsqk0": {"icon": "https://maps.gstatic.com/mapfiles/place_api/icons/geocode-71.png", "geometry": {"location": {"lat": 13.0023713, "lng": 77.72640009999999}, "viewport": {"northeast": {"lat": 13.0100772, "lng": 77.7364425}, "southwest": {"lat": 12.9957709, "lng": 77.7127635}}}, "place_id": "ChIJ9y4Z28ARrjsRlNd-Rrlsqk0", "name": "Kodigehalli", "types": ["sublocality_level_2", "sublocality", "political"], "scope": "GOOGLE", "id": "beb725223feda78887566e07a1d24c7d597f1cc9", "reference": "CmRbAAAAQ58TBOo_9YcxjEfYyEc3zOU_Po1immjnp2JOSUsCdtnks7r1J0Gd7mmWTbWAE6oyU9GOJhRShWC2z9K28OuRKdAYRtEcnyMX_ddCshGxFBOL6bUY_NjhtcVKIGVDMFwXEhD_PB6l_527RJFk5-dODztBGhTNyO0nb3V1VLJ0aZmqXVW0YvgVtg", "vicinity": "Kodigehalli"}}}, "12.975": {"77.745": {"ChIJV2FR4_8RrjsR65LnYl60ejs": {"icon": "https://maps.gstatic.com/mapfiles/place_api/icons/generic_business-71.png", "geometry": {"location": {"lat": 12.9750618, "lng": 77.7447876}, "viewport": {"northeast": {"lat": 12.9764107802915, "lng": 77.7461365802915}, "southwest": {"lat": 12.9737128197085, "lng": 77.74343861970848}}}, "place_id": "ChIJV2FR4_8RrjsR65LnYl60ejs", "name": "Umiya Woods", "types": ["general_contractor", "point_of_interest", "establishment"], "scope": "GOOGLE", "photos": [{"html_attributions": ["<a href=\"https://maps.google.com/maps/contrib/105050759952922661114/photos\">ashish mishra</a>"], "width": 4096, "height": 2304, "photo_reference": "CmRaAAAAeBdrsBlUDb5Dq3VQSz7hznx7s8i8QLYfpYR1xWCGph68yhsEa5IuLTstcW_YKvy0IGWFEauakby4XZfzrYhHHrzLzUZrVrB-cZQoSn_GrgQPhaPx6GSbKZJwziTSWptbEhCldkBX4DsxMyS00lilcbSWGhQJ6KEDSs0uX3-ZEG6XM6sw8YJtUg"}], "id": "a508bb90d04a63fe9789e2576c21c88db9cfe87f", "reference": "CmRRAAAAB605KYx88rag4X2SY_5vBK2Mn2V65INUfwp5PeyLRlzQnvA9Rvm3W5sPIpLQRu-X_CG6SCnrCEL7MgflnE72Hr_VkmlYe7QzEVUxRjhF9Y4HyuosUZi-2O-E-9AOGUsuEhB45fRDMYEaWQlbAjpr-2QsGhR2nTtcLwNvxcxlfqb1q7cvbkCJgg", "rating": 4.4, "vicinity": "ECC Road, Dodsworth Layout, Whitefield, Bengaluru"}}, "77.712": {"ChIJo8Q0Y4gRrjsRXNdi8ebfmt4": {"icon": "https://maps.gstatic.com/mapfiles/place_api/icons/generic_business-71.png", "geometry": {"location": {"lat": 12.9753694, "lng": 77.7115881}, "viewport": {"northeast": {"lat": 12.9767183802915, "lng": 77.71293708029151}, "southwest": {"lat": 12.9740204197085, "lng": 77.7102391197085}}}, "place_id": "ChIJo8Q0Y4gRrjsRXNdi8ebfmt4", "name": "Agilent Technologies", "types": ["point_of_interest", "establishment"], "scope": "GOOGLE", "photos": [{"html_attributions": ["<a href=\"https://maps.google.com/maps/contrib/105737573225310846390/photos\">Ilya Kudinov</a>"], "width": 1632, "height": 1224, "photo_reference": "CmRaAAAAePt3OtLfNYbb70ujGe6qiigH54qLYJ7nQ4YoASzrNuQj2MWl86IPqWxzAMl_quF2TXX0Plu-s5R1rqQgWV5ugxKV7q-ndwxC0_FJkang0h1SS7eXxv5HP89kl0yuULKaEhDrdQ-GXBcFTNn-Ah_X_XTuGhQiolOMUtivjhqyrbE4_LRe6BkrzQ"}], "id": "1510476a211112523f8ac2274d22fa921b08facd", "reference": "CmRSAAAAIB3FtQCnUFbikEdkvMYJKqCIKofZk6yRtUIuN8t04AX4r2-QGOT6tfUkUUDt1ktIYBGY4RWaDWjR-hK_-lJ5saGa4dJKb5-QZvoxI1_wLwFxvMUy9E-FLlqGN-P2po07EhBHVxUIXe_zZkVp4TKz8FdWGhRSWLQNJcrYvEwzphoilwwquy6yFg", "rating": 4.4, "vicinity": "2, Road Number 2, EPIP Zone, Whitefield, Bengaluru"}}, "77.731": {"ChIJOepcy_cRrjsRVq3-j3e7y0E": {"icon": "https://maps.gstatic.com/mapfiles/place_api/icons/school-71.png", "geometry": {"location": {"lat": 12.9745066, "lng": 77.7309535}, "viewport": {"northeast": {"lat": 12.97731715, "lng": 77.7336292}, "southwest": {"lat": 12.97356975, "lng": 77.72699559999998}}}, "place_id": "ChIJOepcy_cRrjsRVq3-j3e7y0E", "name": "Vydehi School Of Excellence", "types": ["school", "point_of_interest", "establishment"], "scope": "GOOGLE", "photos": [{"html_attributions": ["<a href=\"https://maps.google.com/maps/contrib/106137442949555127663/photos\">VydehiSchool</a>"], "width": 2048, "height": 1536, "photo_reference": "CmRaAAAAYMjz4owjdtf_ZhtMAaG9bxf9Te3F8kknrFCp2sP9QNi9O-Q16_2XHeEzni0D9gr7mk908TEQ6OO_q6RMD7Y2AXJLPwGEO-n85DIaW7IN_IxAlSoYs9v5IxduS3ISbSY_EhCmumpW0gA_NRJV4317mDmEGhTRhvZQ-B4Ou9-jXxv2pVnnKfPwjg"}], "id": "7c36ab971049a4794b3550374b9e80f58ecf15a1", "reference": "CmRRAAAA83AMGDFak4bw5Itf3ajnl193CPYOi_MgfyjX8hE-_QxQ3-F5ozVN06eL3-Wmv6A5-6l9Lc8moEHoxwY55t0A-kqWYSx2pcHSE-GfBVVkO6CZwdvX2F1FQXGrYqV4S9tTEhBvGYyOD2VqZsDG67vQWHBTGhRcDfH6oWlZSVVjbyIn-BXD2KWYFg", "rating": 4.5, "vicinity": "82 EPIP Area, Vydehi Campus, Whitefield, Bengaluru"}}, "77.726": {"ChIJHcM4qfURrjsR4DxNw0Khs1w": {"geometry": {"location": {"lat": 12.9754164, "lng": 77.7255356}, "viewport": {"northeast": {"lat": 12.9765503302915, "lng": 77.72703848029151}, "southwest": {"lat": 12.9738523697085, "lng": 77.72434051970849}}}, "place_id": "ChIJHcM4qfURrjsR4DxNw0Khs1w", "scope": "GOOGLE", "types": ["point_of_interest", "establishment"], "icon": "https://maps.gstatic.com/mapfiles/place_api/icons/generic_business-71.png", "opening_hours": {"open_now": false, "weekday_text": []}, "reference": "CmRRAAAA075tDtLyvQWPA3VjUQe6k7nEBjQIaA2qPk6ZmV_dPKGAHifdy21VKOPZWr69r1ndpyGvKO-jYynt-SRoNYcbdVW0tw_C15sUe9Ox_rEwWpeWOTQ0Sfy0mzZIGyN5E-CnEhBQlUG7QckjiyuUrO8VrZP3GhSxoD6cVJ07C0d_N7hvbWrJyf-CMA", "photos": [{"html_attributions": ["<a href=\"https://maps.google.com/maps/contrib/113498758607491290832/photos\">Akshay Joshi</a>"], "width": 4160, "height": 3120, "photo_reference": "CmRaAAAAifOjq51r_J4Q8WtDat-ZqTHAr5UQRA36M6ULgDbaYx0tkR4KZdIwc9fsT9rZ9WUVpgASeCINkiIKJ5s6vdl7II8O1Q0oJzNT62GhiN9unhh-8bkWgEhraWsF6zAJcQf0EhBnphqOkoyAejIV_Vky9duNGhQ98Naly0BEFOZLrTxr9zzxbMIjXw"}], "name": "AMD India Private Limited", "id": "77941a03c74a789335b54abdbde51b5abd349c12", "rating": 4.6, "vicinity": "Plot # 102-103, Export promotion Industrial Park, Whitefield, Bengaluru"}, "ChIJu0AsvPURrjsRq4QHGuhraXE": {"icon": "https://maps.gstatic.com/mapfiles/place_api/icons/generic_business-71.png", "geometry": {"location": {"lat": 12.9750988, "lng": 77.7261393}, "viewport": {"northeast": {"lat": 12.9763821302915, "lng": 77.7275168802915}, "southwest": {"lat": 12.9736841697085, "lng": 77.7248189197085}}}, "place_id": "ChIJu0AsvPURrjsRq4QHGuhraXE", "name": "Chaithanya Projects Private Limited", "types": ["real_estate_agency", "point_of_interest", "establishment"], "scope": "GOOGLE", "id": "290209cbd6eef8a55ee1885d7c4adb1e30e98700", "reference": "CmRRAAAAHRDx8-j5K9_yS99j-aqBbiXpddd20iDYU20Fh3QOSZgI3-YzeSUwfPg1_QeskuTJapigBbk0V6jm-AELsKsw09ft-lE6R-uPpGqsGaU1PncsRquovCOJrlobuA9c_wtwEhBS0C4tSRNDpbfrkqwzxDCgGhTAUPblioveSVv-q6NPTUlXe9jbGg", "rating": 4.1, "vicinity": "#104, 3rd Floor, Prestige Omega, EPIP Zone, Whitefield, Bengaluru"}}, "77.744": {"ChIJo9wEIgASrjsRIp80bsmuFMc": {"geometry": {"location": {"lat": 12.9752718, "lng": 77.74400580000001}, "viewport": {"northeast": {"lat": 12.9767266302915, "lng": 77.7450876802915}, "southwest": {"lat": 12.9740286697085, "lng": 77.74238971970848}}}, "place_id": "ChIJo9wEIgASrjsRIp80bsmuFMc", "scope": "GOOGLE", "types": ["point_of_interest", "establishment"], "icon": "https://maps.gstatic.com/mapfiles/place_api/icons/generic_business-71.png", "opening_hours": {"open_now": true, "weekday_text": []}, "reference": "CmRSAAAAp4aEkzTVL6m24KUjhKRG54sr_LFg5dnEsbbbEH5GnIg8NdVJ4GQXne2p1f6ELG6HFM0V2Rpu-cv3K25t9PSTv54PjJnjCrzC3siJOZvMvRm68CB4YY4BW1wZVTcwALXvEhBRILiL7PAH5ERa-y0V1VemGhRe48rsm6XFubxD0I4O64LmdTPB9w", "photos": [{"html_attributions": ["<a href=\"https://maps.google.com/maps/contrib/114569516178443161028/photos\">Jayesh Nema</a>"], "width": 4208, "height": 2368, "photo_reference": "CmRaAAAAH9rg4EBUz0eoApxnygHylgH9o-wFlWLygzN_levQD14gXkkDu3OqpHMVX25z2ZpQ77W4Y6mUgBh9y9DbQ7PCWzTWYeOfGf1xtD0E5me6XS2Pfs8hmoY3mUpQrBwPa2OdEhDV-uF352o6DBFVAeHimDxBGhQ3JT6oslQHrqZQalke9p0nOe8uJA"}], "name": "Gopalan Atlantis", "id": "2ae33c17fdfc80bc1a30e05c34ae91315be58de1", "rating": 4.3, "vicinity": "ECC Road, Dodsworth Layout, Whitefield, Bengaluru"}}, "77.727": {"ChIJXzBQy-MWrjsRZ9Bp0Shbzps": {"icon": "https://maps.gstatic.com/mapfiles/place_api/icons/generic_business-71.png", "geometry": {"location": {"lat": 12.975098, "lng": 77.726641}, "viewport": {"northeast": {"lat": 12.9764469802915, "lng": 77.72798998029151}, "southwest": {"lat": 12.9737490197085, "lng": 77.72529201970849}}}, "place_id": "ChIJXzBQy-MWrjsRZ9Bp0Shbzps", "name": "Interior Designers", "types": ["general_contractor", "point_of_interest", "establishment"], "scope": "GOOGLE", "photos": [{"html_attributions": ["<a href=\"https://maps.google.com/maps/contrib/100412153137769546008/photos\">Joby Joseph</a>"], "width": 2048, "height": 1305, "photo_reference": "CmRaAAAAuFCNongeSvPz15_wkVk9pCu9VtBD4HtxWjS8vGh8DRNFKo8jmkWQ5LcbyqElvPdCeWYNoeJKnpyUI16kVWehwCCuc4VvWmtlqXRvvl0SCz9D-T-G-RHX5Pc3SqxIBgxMEhB2jRmSNC95ZT4D8Cb4qzPcGhQycpg0ozFPVdchFDjwQzbhTAzCCA"}], "id": "7ddcc296a0944168104362e8dac5437c2f3747c9", "reference": "CmRSAAAA9HRSMKKWIpqgMLFgxdlBgotQb5s5DDTGGrk7YveFKK3HnygV2jEkwj6yS-jsy98OV_pL6mw1Xx0O-bfC7boVEj1tp08W-JRLLxLMGsh6pSswdLJl_KKVaH-Oqt5k97JUEhBemjXl8R25OwCGv8k8Iz13GhSxDKqgiOd2lXyte1dY4QHfLbYR2w", "rating": 5, "vicinity": "Prestige Omega, whitefiled, Bengaluru"}, "ChIJe6yzIVN2AjoR4TATiRr6sdM": {"geometry": {"location": {"lat": 12.975194, "lng": 77.7269}, "viewport": {"northeast": {"lat": 12.9765429802915, "lng": 77.72824898029151}, "southwest": {"lat": 12.9738450197085, "lng": 77.7255510197085}}}, "place_id": "ChIJe6yzIVN2AjoR4TATiRr6sdM", "scope": "GOOGLE", "types": ["point_of_interest", "establishment"], "icon": "https://maps.gstatic.com/mapfiles/place_api/icons/school-71.png", "opening_hours": {"open_now": false, "weekday_text": []}, "reference": "CmRSAAAAa8qtwPkbuNrtbAuTeS_nOj7gkILT7c4r3QrswEjDJNV5hVMlZwu667L7ci_fRu-w3tngLg7kVGa98KmEK4LlIrdOi-GM3gGvK76kFCN4TOO4fvxbGhayUDgEPzoD3HkGEhCRt1VquA_LzzUNr9O5bcIAGhQIUD-V30qy5i9DU9sqdsNnkNWtqQ", "photos": [{"html_attributions": ["<a href=\"https://maps.google.com/maps/contrib/110159133388702525796/photos\">Clinical Research Institute- Clini India, Bangalore</a>"], "width": 700, "height": 525, "photo_reference": "CmRaAAAAfv9lQ8SqHdauwW5gXGyeoqNSENAaTrLQmj1Ug2Dw-9QrLDWSnLSvaEPQ8yahxNBtDPDyip29Kp-LFu4-wZ2R_lTAcNTa3hNLPxdUH-_Y1eJP41k5qzSYwZHqe_i4_4nOEhARhkiihIiKMy_iAiPA_2NYGhRaklBlgK_yvm45Eqq77lGBSRHrUQ"}], "name": "Clinical Research Institute- Clini India, Bangalore", "id": "79f31b737daa8b6814c279228e9bec38b8c5a649", "rating": 4.9, "vicinity": "No. 104 EPIP Zone, Whitefield, 2nd Floor, Prestige Omega, Bengaluru"}, "ChIJWYN9wPURrjsRbRQ6jT4tugU": {"geometry": {"location": {"lat": 12.9752684, "lng": 77.7266573}, "viewport": {"northeast": {"lat": 12.9767202802915, "lng": 77.7282048302915}, "southwest": {"lat": 12.9740223197085, "lng": 77.7255068697085}}}, "place_id": "ChIJWYN9wPURrjsRbRQ6jT4tugU", "scope": "GOOGLE", "types": ["premise", "point_of_interest", "establishment"], "icon": "https://maps.gstatic.com/mapfiles/place_api/icons/generic_business-71.png", "opening_hours": {"open_now": false, "weekday_text": []}, "reference": "CmRRAAAAkUIcix_VDH5jYZj88IEG-21Lz9u8hXnej7C2vq64OdCjPZgwhxov3Wvm80JLK13s9J_VxOTT5JwUBGB9_Kylq0D7unr6eruC9EV-msbZuITCsnopaepGaF3uwLynbsq0EhBh_V_LMpnJgu-E41CRSXIhGhSWlRh7ZFJPKLjpLWzH0tAxAEQgPw", "photos": [{"html_attributions": ["<a href=\"https://maps.google.com/maps/contrib/113304825102576524833/photos\">Vivek K</a>"], "width": 4640, "height": 3480, "photo_reference": "CmRaAAAAg6JKud4MLY_xctlkKBrOTdozz3lDgUxIxjEbr08lj2wS33gDi9GyBZjggvOItsA_RfvkMVSBFooAd0f4POYlltV6qCMF1DXUDus1kbEvRLdSw1pm83CHJAky1ubone9vEhC08iLZr6VvwnrmjRkodtcnGhQ4uV6Kxb7CII4VzDTJQqptXBbImA"}], "name": "Prestige Omega", "id": "7780237979f78115dd4144a8ee7b3782a0caf843", "rating": 3.9, "vicinity": "Road Number 2, Vijayanagar, EPIP Zone, Whitefield, Bengaluru"}, "ChIJeZx9wPURrjsRZr5C3NCHCzY": {"geometry": {"location": {"lat": 12.9752891, "lng": 77.7266127}, "viewport": {"northeast": {"lat": 12.9765730302915, "lng": 77.72810048029152}, "southwest": {"lat": 12.9738750697085, "lng": 77.7254025197085}}}, "place_id": "ChIJeZx9wPURrjsRZr5C3NCHCzY", "scope": "GOOGLE", "types": ["real_estate_agency", "point_of_interest", "establishment"], "icon": "https://maps.gstatic.com/mapfiles/place_api/icons/generic_business-71.png", "opening_hours": {"open_now": false, "weekday_text": []}, "reference": "CmRRAAAAxFNZ-32SND_FKgPng8kWOtyAKdYtmDLF-6RQtsqQHV1ljR8M1uRSjpBrgLgFBpkZJIEliOiM40goBp4q8L8x9FccD1yvvwCBSJE7Y-s1l0Xf6u7oQil-qDt_FgCnAviJEhAxY7TcddbAG671sD7OpuVcGhTFVkGR4NU3410eGZTV2vjWtg6pVA", "photos": [{"html_attributions": ["<a href=\"https://maps.google.com/maps/contrib/100854121615444459733/photos\">Sony Mathew</a>"], "width": 4608, "height": 3456, "photo_reference": "CmRaAAAAuRAKvzi2Y3yhVtERLodRBirqX0ms76zkaVvfxg5NR3n42cG337R6Ow0X4N2mzfjfDkdUn0RVPUm6Jd_GvekfwfA7OM675U7TqYC7Xr-qZTshini-KCQX0k2gyOV7G1N5EhCYKFC8xvfE1iuIQx0Jx3c-GhSwucv3pnguX-YeGvCG1x3zykAKqA"}], "name": "Regus - Bangalore Whitefields", "id": "1e6eaa3ae3229398a4fcca03e04d6880dca27ec8", "rating": 4.1, "vicinity": "104, EPIP Zone Whitefield Road, Vijayanagar, Phase 2, Brookefield, Bengaluru"}}, "77.721": {"ChIJizXr44oRrjsR0-lR88kBH3c": {"geometry": {"location": {"lat": 12.9753818, "lng": 77.7207445}, "viewport": {"northeast": {"lat": 12.9764679802915, "lng": 77.72245128029151}, "southwest": {"lat": 12.9737700197085, "lng": 77.71975331970849}}}, "place_id": "ChIJizXr44oRrjsR0-lR88kBH3c", "scope": "GOOGLE", "types": ["point_of_interest", "establishment"], "icon": "https://maps.gstatic.com/mapfiles/place_api/icons/generic_business-71.png", "opening_hours": {"open_now": false, "weekday_text": []}, "reference": "CmRRAAAAP-ucN_mSev21UOGPFG7igZVytCy7tPuwJwrex4hTxuulMxPxiGdvKIe3u8kvqLEqsG-V7lt-E-XNbC3AqvNdf0gWGtEG2ty-baNTaRwBTdAJbWoh6XT40SCZiI8jJAC-EhCY8V5CdO4GOpBeFVNraXOjGhTRPf-QWneaQ4FZ5DNj8hwGqRPXIA", "photos": [{"html_attributions": ["<a href=\"https://maps.google.com/maps/contrib/105475239101140712181/photos\">Rahul Banerjee</a>"], "width": 4160, "height": 3120, "photo_reference": "CmRaAAAARwne2Gru54PsncfrCAJ7cAaxKKrw76jd3jSms6nWxqkVmElQ283H4D7rdTUJM4tRXmKmQbiS2pUCv_kSv9XTCsVUPIPZ9fa0OOhlCgJaVICeuMlWvcXtja9hEnlvLkrmEhDir8ar5y6JqwhLGxhmj2JYGhQDDqX8XBLEJbqU1YcctHdUf2VQag"}], "name": "Dell International Services", "id": "41110a4751d8a26403db5e4a69eb167134d7d3a1", "rating": 4.4, "vicinity": "Shivalaya, No 123, Phase II, Whitefield Industrial Area, EPIP Zone, Bengaluru"}}}, "12.988": {"77.708": {"ChIJq6qqqn0RrjsRjlmoF98IChA": {"icon": "https://maps.gstatic.com/mapfiles/place_api/icons/generic_business-71.png", "geometry": {"location": {"lat": 12.9884295, "lng": 77.70760229999999}, "viewport": {"northeast": {"lat": 12.9897784802915, "lng": 77.7089512802915}, "southwest": {"lat": 12.9870805197085, "lng": 77.70625331970848}}}, "place_id": "ChIJq6qqqn0RrjsRjlmoF98IChA", "name": "Gleason Works India Private Limited", "types": ["point_of_interest", "establishment"], "scope": "GOOGLE", "id": "6ee95700609b60bdd36ec7b427e0257abbb61cd4", "reference": "CmRRAAAAY2H0ITlpYNexO22cKizNUGBdLO3H0hBqtUO4W7q9IXU3QVxjkMFu434xtKHD45d6OP_cUMaR42sykzoLOU7AjzPA7Pg8dfDJd_4OX3yC7AOMBh2qLjx6t3hNrbdL0BMuEhAlq3pApsQ3hWTJxc9_s3rkGhRAKFFeVCArV0JxUvKYwQBvZ7ARKA", "rating": 5, "vicinity": "Building No. 37, Doddanekundi Industrial Area, Whitefield Road, Akashnagar, Industrial Area, Mahadevapura, Bengaluru"}}, "77.705": {"ChIJL5FqPpwRrjsRLaKH05JSQEs": {"icon": "https://maps.gstatic.com/mapfiles/place_api/icons/generic_business-71.png", "geometry": {"location": {"lat": 12.9880642, "lng": 77.70478849999999}, "viewport": {"northeast": {"lat": 12.9895708802915, "lng": 77.7060823302915}, "southwest": {"lat": 12.9868729197085, "lng": 77.70338436970849}}}, "place_id": "ChIJL5FqPpwRrjsRLaKH05JSQEs", "name": "Gopalan Urban Woods", "types": ["point_of_interest", "establishment"], "scope": "GOOGLE", "photos": [{"html_attributions": ["<a href=\"https://maps.google.com/maps/contrib/113896434508120802072/photos\">Divya Balabisehan</a>"], "width": 4640, "height": 3480, "photo_reference": "CmRaAAAAM3HcISbIKnDukcv46v5BseQ6BI5DQcEfUwB706xLgPjii8DHcDOHUZ6H5m5MxOQejWDmBPikYaPMrAElG110cahueRsPExLEhFj6OAnre2jRwohl-cvLurTZLuNcm2qkEhAU8Pl_0i8qbxkUSTh2yEV2GhTY8f3KeiXfQMCtT3inw6j-8rkL4A"}], "id": "a2085924cf9e32668d4455e1d627e676a1f6f652", "reference": "CmRRAAAArvMlSDbOsb9QBKCB3ZlYD91PUI58kVzvBY7bJrNX32RvuMGdWMv6bGvrr7LiqF_rxK5eX1AA1Ik05EORrlaDeg77QBirkmFmKWBqMkZyvDeZd7rQpem2qrKoca8UI1loEhBh-wsaj9ogmC6iiFNBkCUnGhQ-7GpTVRRibjeXs1mU1fUdwGt-SA", "rating": 4.2, "vicinity": "Sri Krishna Temple Road, Brigade Metropolis, Garudachar Palya, Mahadevapura, Bengaluru"}}, "77.734": {"ChIJ3QrWgOURrjsREHJVeodsc38": {"icon": "https://maps.gstatic.com/mapfiles/place_api/icons/shopping-71.png", "geometry": {"location": {"lat": 12.9883416, "lng": 77.734053}, "viewport": {"northeast": {"lat": 12.9894562302915, "lng": 77.73536493029151}, "southwest": {"lat": 12.9867582697085, "lng": 77.7326669697085}}}, "place_id": "ChIJ3QrWgOURrjsREHJVeodsc38", "name": "KIADB Shopping Complex", "types": ["shopping_mall", "point_of_interest", "establishment"], "scope": "GOOGLE", "id": "27c358f64fa53c33b4b01634a9cc47acc398a728", "reference": "CmRRAAAAvBMjxYYHvLaa8qgLPxHrdelKKnRZbz5VKo5v-jUCxqI3zYF93_yS69UUycJZnyYdETUeFDQC7GCH5exfR_3bJquI-xIm_lUYK5W0GaaDlRZ1pv0Ov3zUCfP02AbWiqoAEhDwT6_reqpSsbU4Shpf1Bv_GhQ1kh2PAIPOvCo7QUurXjRSeDX_Zw", "rating": 4.2, "vicinity": "ITPB Main Road, Krishnarajapura, Bengaluru"}}, "77.709": {"ChIJSZZMNdEVrjsRBFFqeJue9-E": {"geometry": {"location": {"lat": 12.987622, "lng": 77.709002}, "viewport": {"northeast": {"lat": 12.9889709802915, "lng": 77.71035098029151}, "southwest": {"lat": 12.9862730197085, "lng": 77.70765301970849}}}, "place_id": "ChIJSZZMNdEVrjsRBFFqeJue9-E", "scope": "GOOGLE", "types": ["physiotherapist", "doctor", "health", "point_of_interest", "establishment"], "icon": "https://maps.gstatic.com/mapfiles/place_api/icons/generic_business-71.png", "opening_hours": {"open_now": false, "weekday_text": []}, "reference": "CmRSAAAA4Uy1TdhRegOeneL_n-_dQRh5qEGJsGz7GEoQa-SjE3HlJy7275rDakO5tsK1z1kgcB6dVeq4EVGZ6zpleFzP6NjzEZeNlakxe-x7437UX6mxUTBFo34xQlbJXmZyfeknEhC-mSUJVLqx2yAKKN3YZJe-GhRvHcJ9YO8V6e-ueYtIhFpZZIp0Iw", "photos": [{"html_attributions": ["<a href=\"https://maps.google.com/maps/contrib/110311388088017778460/photos\">Spectrum Physio Centre - Mahadevpura</a>"], "width": 6000, "height": 3375, "photo_reference": "CmRaAAAAzrtgVKNsD0G1QPCSaOPQt7MZcHJkAnEHm0oYX9u6_TfaKHLzbVVu4XWX443kdLf6CL1hov5RIkMfGBw-1AqJRkk5jHP2NvinsiYmgsZBF2H71Kb04hy0ThCRxNZ5SkmREhD2KheS382QiRl-iNXfq1TOGhT2ORNNeOh5IPKz0qxq1OeAsL2o7g"}], "name": "Spectrum Physio Centre - Mahadevpura", "id": "92944997ad4dad55e999d06f53d8c544d4bfd8cb", "rating": 4.2, "vicinity": "29, ITPL Main Road, Doddanakundi Industrial Area 2, Devasandra Industrial Estate, Mahadevapura, Bengaluru"}}, "77.732": {"ChIJO8kIDu8RrjsR4cmv_we9na0": {"geometry": {"location": {"lat": 12.988349, "lng": 77.73185}, "viewport": {"northeast": {"lat": 12.9896185302915, "lng": 77.7332608302915}, "southwest": {"lat": 12.9869205697085, "lng": 77.73056286970849}}}, "place_id": "ChIJO8kIDu8RrjsR4cmv_we9na0", "scope": "GOOGLE", "types": ["health", "point_of_interest", "establishment"], "icon": "https://maps.gstatic.com/mapfiles/place_api/icons/generic_business-71.png", "opening_hours": {"open_now": false, "weekday_text": []}, "reference": "CmRSAAAA-cz_Eiwn-H_QwINCJMNfkZnsIy-aoGPSn-iMBlpV4-X6T2yyI28ZCsa-Lwl9N-knlVFr9aJ9CQBFw2tF5sbBA_ymFjsLWJuoWZf1NF6eOwEhROOsE62iFr_Cwi0v-MNmEhCIFe0Ij1WfpA_RfgLssWKhGhQcGNAV4AkxTYtm-6QydyPLFzfQlQ", "photos": [{"html_attributions": ["<a href=\"https://maps.google.com/maps/contrib/116307525080307683663/photos\">Pharmed Limited</a>"], "width": 1200, "height": 444, "photo_reference": "CmRaAAAAlQiL-Zy6Lga0RDFcmUWLyEPkK7HzSiX-mUvSZEqKmCLhwBPjzr8WvyMOMrKpfqcpNfCdPbNzqcxKJF3tPA9WYEr_-woki8u9stx0C7Yl0sBFLy_0pb74SsMFou0UoIRREhA2XCY7nFAdG8rO8NlAvL8lGhQqTVHm9pRMAIWJ5tIzkPk-xSz-vQ"}], "name": "Pharmed Limited", "id": "4e43297b87b7df5fe525bf3b1782ccb55c4bdb1c", "rating": 4.8, "vicinity": "Pharmed Gardens, Whitefield Road, Bengaluru"}, "ChIJHTe2AogRrjsRpD9ocLSsoJk": {"geometry": {"location": {"lat": 12.9878512, "lng": 77.73158169999999}, "viewport": {"northeast": {"lat": 12.9892099302915, "lng": 77.7329839302915}, "southwest": {"lat": 12.9865119697085, "lng": 77.73028596970849}}}, "place_id": "ChIJHTe2AogRrjsRpD9ocLSsoJk", "scope": "GOOGLE", "types": ["point_of_interest", "establishment"], "icon": "https://maps.gstatic.com/mapfiles/place_api/icons/generic_business-71.png", "opening_hours": {"open_now": false, "weekday_text": []}, "reference": "CmRSAAAASJ5xIU9XSRx6wafXk8fNjtfo0F7nwT5jpjjADDMtB6fZidQdhZ1PRJ3WB7mjiwrh2klYU648zlf4VY0-7hDrUQFF5ffZq5GTSLqo-HX8j8Zf1haLMifQJPJEDLlAUkP2EhC5Axr8DaQp6WQgJU3rpakQGhQDgfJW8-crMSQB78TqnoP6ayD87w", "photos": [{"html_attributions": ["<a href=\"https://maps.google.com/maps/contrib/106533031466415165786/photos\">Ajayan Nair</a>"], "width": 4608, "height": 3456, "photo_reference": "CmRaAAAA6569-QMcEKxGWXH7fNGIuIZw5f2bD5ac6YfqWTHmudhnJCMVEQyJyOTpjaKH9dCGJZuP3e2gMqs9z-l6xR473RdaLYdpi_-k2nFIIa8O8vAfqv3p5z2BBPc5O1UQxqnzEhAmaAapHlSzvMJtiMaPjom0GhSTWjJEosjYls63WjmNKXS1Ncv_VA"}], "name": "Total Environment", "id": "0774314200d30fc8b9bfe2fa1bb7d59d6d84f0d6", "rating": 4.5, "vicinity": "IMAGINE, No.78, ITPL Main Road, EPIP Zone, Whitefield, Bengaluru"}}}, "12.945": {"77.747": {"ChIJ87KalYkNrjsRIgEzLa4jKCw": {"geometry": {"location": {"lat": 12.9445438, "lng": 77.74688499999999}, "viewport": {"northeast": {"lat": 12.9458927802915, "lng": 77.7482339802915}, "southwest": {"lat": 12.9431948197085, "lng": 77.7455360197085}}}, "place_id": "ChIJ87KalYkNrjsRIgEzLa4jKCw", "scope": "GOOGLE", "types": ["store", "point_of_interest", "establishment"], "icon": "https://maps.gstatic.com/mapfiles/place_api/icons/shopping-71.png", "opening_hours": {"open_now": false, "weekday_text": []}, "reference": "CmRRAAAA_KkhpEFQXEtm47fsNPzlD1UjROjQILgLLKLubvZBYBNWhup3W0iSXj9SwBl7aMnWcor0mdbC6Dsss81X7tR4XdmHtWi92wmVIZLvIzx-yuNnaFP997TRuiBHFrvwiX-UEhBS2Y1srywTLlK0iMA0CR7PGhRg2gOGD96ldhuIoJzgxfX5ABx9fg", "photos": [{"html_attributions": ["<a href=\"https://maps.google.com/maps/contrib/109640557281223006370/photos\">Venkateshwara Enterprises</a>"], "width": 640, "height": 480, "photo_reference": "CmRaAAAAH0Xx5tq9X3Tvri89NT-0knYCb61iUtcQ7KrMm0t4TWnqTNfk3R_u3jxY2udoWF8lp-I-igDrMHgHlItftKZJus6VJZE3smyUuTzjRs877yJl_JZDeV34rpAwFFfcyBQoEhASmOaezoG2ebMS_eiJC2JSGhSyV1VDRqiHhd_fHzucZo2AFDNF5g"}], "name": "Venkateshwara Enterprises", "id": "1ba882cc2d429e5bdea104318b70fd5c1ef90a13", "rating": 3, "vicinity": "Shop No 1,Varthur, Near Lake, Varthur, Bengaluru"}}}, "12.942": {"77.697": {"ChIJWd5GD7MTrjsRie9CYQ06hFo": {"geometry": {"location": {"lat": 12.9417493, "lng": 77.6970697}, "viewport": {"northeast": {"lat": 12.9431455302915, "lng": 77.69832908029151}, "southwest": {"lat": 12.9404475697085, "lng": 77.6956311197085}}}, "place_id": "ChIJWd5GD7MTrjsRie9CYQ06hFo", "scope": "GOOGLE", "types": ["lodging", "point_of_interest", "establishment"], "icon": "https://maps.gstatic.com/mapfiles/place_api/icons/lodging-71.png", "opening_hours": {"open_now": true, "weekday_text": []}, "reference": "CmRRAAAAamVTPzDaZCiQYOY7nYh3kqcljjJV4Zmbcqkcrj3peEJxKvrZ5gC3chEwYR35BgYtEimO5j5zgc8iLk8dwLUMOfDMWH-Ai-9rtIDtEoHb5HLfVxEJ4ABHE9eHd-Nm3GWhEhAydnzjHF1qFpnopYOwdrHrGhStprpMY_XZ6jKuSjqpWvBCvekiaw", "photos": [{"html_attributions": ["<a href=\"https://maps.google.com/maps/contrib/117941519551184719070/photos\">Avinash Rana</a>"], "width": 730, "height": 435, "photo_reference": "CmRaAAAA9glaqcSHfM9LjNAaznhtPNpY11jUxFW_PlvYN582jb2L8xNmGh4n7BSw4cNuGrL9GuWVyVFWUBmH8QHIWsaOTeoiijgjuvzKnfbAAJXHq8oAAvA6LKRVMWFKtAbHsqHFEhCSaYgXYDylmA_dxhmL-3P3GhSkZIsZvZTi1_TDB_5-VjSoEQhM_w"}], "name": "FabHotel Berry's Marathahalli", "id": "0116d636fb470d6e2299bae5b582fabfe1066438", "rating": 3.7, "vicinity": "Kaadubisanhalli,, Kadubeesanahalli, Bengaluru"}}}, "12.952": {"77.7": {"ChIJRbZRMTUSrjsRwY5EKf1aR5E": {"geometry": {"location": {"lat": 12.951981, "lng": 77.700074}, "viewport": {"northeast": {"lat": 12.9533299802915, "lng": 77.70142298029151}, "southwest": {"lat": 12.9506320197085, "lng": 77.69872501970849}}}, "place_id": "ChIJRbZRMTUSrjsRwY5EKf1aR5E", "scope": "GOOGLE", "types": ["electronics_store", "store", "point_of_interest", "establishment"], "icon": "https://maps.gstatic.com/mapfiles/place_api/icons/shopping-71.png", "opening_hours": {"open_now": true, "weekday_text": []}, "reference": "CmRSAAAAFZ0cBYzeG5KH09zIeCm8lRQm_Nc_vuaLJFXagnjyWcXXTEfl15GxvO_K_X_Zj9ynWvhykcEyZ_E8HeUS5wbaTbCUXhtctSUu7fR8_EOCvFobsoiZqUkSNDJusf7in1CIEhB6tuc_eGkL-ya5MC8vVylcGhQrX9o1VbE-1d4NtKsmI7UxFGFpJw", "photos": [{"html_attributions": ["<a href=\"https://maps.google.com/maps/contrib/111834602109428397365/photos\">Bino Bose</a>"], "width": 2340, "height": 4160, "photo_reference": "CmRaAAAAdzZbqRkwBTOy3x6e-iOXpJyUBbzJtArBfpRuMlOFA-gmNkh6s7xb2fYaI9ZWfjZDwi-keaM3f5HJA60j-TSq3PzXE0amzabZL2T-rpYNskvoh3BM3DCNC_kKweA9hfivEhCXXyyxYjI3seXzr0fyKML7GhTK5Q1UoyzWn21Wn4I6bjWsqALYYQ"}], "name": "Adishwar", "id": "c5089d9b49a795c20294f4912e4902a598a5e303", "rating": 3.3, "vicinity": "No. 90/1, B Outer Ring Road, Munnenakolalu Village, Marathalli, Bengaluru"}}, "77.731": {"ChIJL2tXkxMSrjsRHD99Ra8c91A": {"icon": "https://maps.gstatic.com/mapfiles/place_api/icons/school-71.png", "geometry": {"location": {"lat": 12.9519811, "lng": 77.7305001}, "viewport": {"northeast": {"lat": 12.9533300802915, "lng": 77.73184908029151}, "southwest": {"lat": 12.9506321197085, "lng": 77.72915111970849}}}, "place_id": "ChIJL2tXkxMSrjsRHD99Ra8c91A", "name": "Sri Sri Ravishankar Vidya Mandir, Siddapura, Bangalore", "types": ["school", "point_of_interest", "establishment"], "scope": "GOOGLE", "photos": [{"html_attributions": ["<a href=\"https://maps.google.com/maps/contrib/111200918659637213239/photos\">shivugiri chakrasali</a>"], "width": 4160, "height": 3120, "photo_reference": "CmRaAAAAi74rAl73FWLRCMObr6nyj-3RugUkl5eOFCxY7a9VE0ilbMiJ-3kafDHaG9VhDaddpQEtTwCMsmvfRssDAsz3UnA68RDMVYG4-jo9S92qJRcisd2Y4IBHXlo3ysPY5nYXEhB1OYa7vrVAzWQpvoTedzHDGhStypiNhK5DTonKQqxMS4FwtZzltA"}], "id": "4edaf2fb36a58b66e957a943e09c9bbff04def34", "reference": "CmRRAAAAScAOzE9Y99JbZ67XcTYwO9lLkvDmuecbkvmcDxp9d_t9-IX6xjRZKJDNVEpgli7kNVn_VrMWRiwh89B9Ttk0XYRy7tav6sRKoAB28ByjhsMfr4YMCOKD8ElAe4BQsWzgEhBpzspNFJF1dxsTUTeiZ7s5GhShHNqX5YIF5lfsqUicr_ByY6YGSg", "rating": 4, "vicinity": "129, Siddapura, Old Airport, Patel Narayanswamy Layout, Siddapura, Whitefield, Bengaluru"}}, "77.724": {"ChIJQQ0LFRUSrjsRQ3QlGt-0Ej0": {"geometry": {"location": {"lat": 12.952075, "lng": 77.72444089999999}, "viewport": {"northeast": {"lat": 12.9535280302915, "lng": 77.7255517302915}, "southwest": {"lat": 12.9508300697085, "lng": 77.7228537697085}}}, "place_id": "ChIJQQ0LFRUSrjsRQ3QlGt-0Ej0", "scope": "GOOGLE", "types": ["point_of_interest", "establishment"], "icon": "https://maps.gstatic.com/mapfiles/place_api/icons/school-71.png", "opening_hours": {"open_now": true, "weekday_text": []},