{"12.97": {"77.59": {"ChIJbU60yXAWrjsR4E9-UejD3_g": {"place_id": "ChIJbU60yXAWrjsR4E9-UejD3_g", "reference": "CmRbAAAAE1k-6XvAssiueizUPvgWBC7-qUWC28uSeLXeB0_RrMUOz_KI-dpmf6SLuwivtxJSe8RVsbd9mCPq_tNDSrYBxn5mV4VAD-w9fKPrCIm4HdAnUcFmW7XE2RrdQKPDbiPHEhBE9V3qvq4xgWoHV565pjzRGhSudvcKvKJJisRMtMeOjtptjw8WTg", "name": "Bengaluru", "types": ["locality", "political"], "geometry": {"viewport": {"southwest": {"lng": 77.3791981, "lat": 12.7342888}, "northeast": {"lng": 77.8826809, "lat": 13.173706}}, "location": {"lng": 77.5945627, "lat": 12.9715987}}, "scope": "GOOGLE", "icon": "https://maps.gstatic.com/mapfiles/place_api/icons/geocode-71.png", "vicinity": "Bengaluru", "photos": [{"height": 640, "photo_reference": "CmRaAAAAf_Iy0tfslIXKlzAXzraAYji0meLutvcwpFi-AFA5rtU5zBEbkfylcn538T5vRAPSr3td8O8dk3taQ_so6MlAPD6dlqHU7hZUmJs97UyHZdXTyeyETMuWOWW6PauvNoRSEhCOULgGYR2BiXKxEaBcARqzGhTLM35wD0ioC8YQDAJcjsRuU5N4rg", "html_attributions": ["<a href=\"https://maps.google.com/maps/contrib/113556790042299682720/photos\">Mayur Panchamia</a>"], "width": 1137}], "id": "0862832923832bfb1e46cbe843cdaa03a9ee8aa1"}}, "77.73": {"ChIJOepcy_cRrjsRVq3-j3e7y0E": {"place_id": "ChIJOepcy_cRrjsRVq3-j3e7y0E", "reference": "CmRRAAAA83AMGDFak4bw5Itf3ajnl193CPYOi_MgfyjX8hE-_QxQ3-F5ozVN06eL3-Wmv6A5-6l9Lc8moEHoxwY55t0A-kqWYSx2pcHSE-GfBVVkO6CZwdvX2F1FQXGrYqV4S9tTEhBvGYyOD2VqZsDG67vQWHBTGhRcDfH6oWlZSVVjbyIn-BXD2KWYFg", "name": "Vydehi School Of Excellence", "types": ["school", "point_of_interest", "establishment"], "geometry": {"viewport": {"southwest": {"lng": 77.72699559999998, "lat": 12.97356975}, "northeast": {"lng": 77.7336292, "lat": 12.97731715}}, "location": {"lng": 77.7309535, "lat": 12.9745066}}, "scope": "GOOGLE", "icon": "https://maps.gstatic.com/mapfiles/place_api/icons/school-71.png", "vicinity": "82 EPIP Area, Vydehi Campus, Whitefield, Bengaluru", "rating": 4.5, "photos": [{"height": 1536, "photo_reference": "CmRaAAAAYMjz4owjdtf_ZhtMAaG9bxf9Te3F8kknrFCp2sP9QNi9O-Q16_2XHeEzni0D9gr7mk908TEQ6OO_q6RMD7Y2AXJLPwGEO-n85DIaW7IN_IxAlSoYs9v5IxduS3ISbSY_EhCmumpW0gA_NRJV4317mDmEGhTRhvZQ-B4Ou9-jXxv2pVnnKfPwjg", "html_attributions": ["<a href=\"https://maps.google.com/maps/contrib/106137442949555127663/photos\">VydehiSchool</a>"], "width": 2048}], "id": "7c36ab971049a4794b3550374b9e80f58ecf15a1"}, "ChIJVVVVVfkNrjsRyju14uRkUlE": {"name": "Ge Health Care", "reference": "CmRRAAAAqwr3TFY_9VLJtMXhuYhWWaFdg1IuZsIXupW_TuAg2P0kN0vrXcww3XRDx647WEzn26ndN1sreFPNn5Z7qruHFH-z-ROekHFD61tUPmx9NqL8iL090wHlMGlNUA4pYwchEhAK_3Bv4XV26xVZNEu54_YaGhQSE00b0NK2XNqBD3lKWB8pYf2IDw", "place_id": "ChIJVVVVVfkNrjsRyju14uRkUlE", "types": ["store", "health", "point_of_interest", "establishment"], "geometry": {"viewport": {"southwest": {"lng": 77.72432381970849, "lat": 12.9722091197085}, "northeast": {"lng": 77.7270217802915, "lat": 12.9749070802915}}, "location": {"lng": 77.7256728, "lat": 12.9735581}}, "scope": "GOOGLE", "icon": "https://maps.gstatic.com/mapfiles/place_api/icons/shopping-71.png", "vicinity": "3rd Floor, Mobus Tower, Whitefield, Whitefield, Bengaluru", "rating": 4.5, "id": "4dc1e1c8bf33c5a3bf293506353510490c27bd8c"}, "ChIJVVVVVfkNrjsRohZyAo-5ArQ": {"place_id": "ChIJVVVVVfkNrjsRohZyAo-5ArQ", "types": ["point_of_interest", "establishment"], "scope": "GOOGLE", "icon": "https://maps.gstatic.com/mapfiles/place_api/icons/generic_business-71.png", "opening_hours": {"weekday_text": [], "open_now": true}, "reference": "CmRSAAAAqUFQ3wDWtb6nvXYpjvypoc4cipB5vnEyTPtju51l4tuq5fDcYg1-7k5Mc7_HFLrmeIqDxGA7qg-Oqse5w3SXRac8dh0uzlmo2J5GYSQbriE0hS4HMdt9K5GbbiDTODGFEhAuxq0uNdBZtq0AVHFCtV12GhRlQWbbbhWZu8hqC0oz8QFIUVTT7Q", "name": "Tesco", "geometry": {"viewport": {"southwest": {"lng": 77.7260709697085, "lat": 12.9729955197085}, "northeast": {"lng": 77.72876893029151, "lat": 12.9756934802915}}, "location": {"lng": 77.7275791, "lat": 12.9740286}}, "id": "71718ff2cf5e3c3951998cc2fba12240ce02f95c", "vicinity": "81 & 82, EPIP Area, Near Vydehi Hospital, Whitefield, Bengaluru", "rating": 4.4, "photos": [{"height": 1052, "photo_reference": "CmRaAAAAPvZIoRmtv8sBeTx5GBldNo05YvO5YM31WiVP4M1HMoxM6d-d8nDjSSBEmhk66pHlbBjgfKzP_OAt_9TV9g54L6UHl3NY42oIs9MeuI0uyEGWRwJ3BdcMi2Y1BPgwmNtYEhDVyLOkDDYbdmECPuVtZAlEGhSfyGeKYucAfOE1YgQfg9VuyyQ9EQ", "html_attributions": ["<a href=\"https://maps.google.com/maps/contrib/117276785502266242117/photos\">Tesco</a>"], "width": 1502}]}, "ChIJ39B15J8WrjsRRZ-LA7E2baw": {"opening_hours": {"weekday_text": [], "open_now": false}, "place_id": "ChIJ39B15J8WrjsRRZ-LA7E2baw", "reference": "CmRSAAAAk5f9g88f8i2UVD72faOHRKNWNhm0Qvl8s5ges2t-L7PbxfSKcuy5R7QWAukipgo82WYWQug0oWjL_1sLMh21YqGMHWuNbIbUL3QPiQ7kZGESv7DwBBQDt4Hn6KOzHvJ1EhDB0S2TSef2O5uOeL6VjNa0GhSaJxR5FqQEVyOJseq8OyvD08UlfQ", "name": "The Brand Syndicate", "types": ["point_of_interest", "establishment"], "geometry": {"viewport": {"southwest": {"lng": 77.7299320197085, "lat": 12.9657300197085}, "northeast": {"lng": 77.7326299802915, "lat": 12.9684279802915}}, "location": {"lng": 77.731281, "lat": 12.967079}}, "scope": "GOOGLE", "icon": "https://maps.gstatic.com/mapfiles/place_api/icons/generic_business-71.png", "vicinity": "301A, Trifecta Sollievo, New Temple Road,, Nallurahalli, Whitefield,, Bengaluru", "photos": [{"height": 3078, "photo_reference": "CmRZAAAA14uUZjxv_DSz43HOQz6-yWgGhRp73eJkea2p2CGcCfv3bw_7XxjOT4ekEnQw0FaXYJ4chGOgGsVey4sGvbBaAKSdBj6-CgxZftCGWW6L6v5uqgmIg0gT_JNzG8hc2jMAEhAZtbkzu5J6_3Sx2p6IoSdtGhQufraYRba59P6THhAjp7FifTx9Pw", "html_attributions": ["<a href=\"https://maps.google.com/maps/contrib/103534962592645102319/photos\">The Brand Syndicate</a>"], "width": 5472}], "id": "c60e2e9974b640a1666162105b77cea585aaba72"}, "ChIJ28ZWZBcXrjsRelq-DXh5X_4": {"place_id": "ChIJ28ZWZBcXrjsRelq-DXh5X_4", "reference": "CmRSAAAAxVp_GCzIxD7BdpKAMxOtM9OMAMIH-E-SDKcKzI0S3EH75r8cRCT7VdNqMg7EtzzVUm50lcA7_USS4m53KZeT4IKpM0Ra7vEhPI42n2vujjUop8__ViYseUButJVskwR7EhDMSIXmpiDanl6S0tyMgY3QGhQNLFDIaHq0oTDHoBFGLO-xp6OYKg", "name": "Chira Solutions", "types": ["point_of_interest", "establishment"], "geometry": {"viewport": {"southwest": {"lng": 77.7292343197085, "lat": 12.9665439197085}, "northeast": {"lng": 77.7319322802915, "lat": 12.9692418802915}}, "location": {"lng": 77.73058329999999, "lat": 12.9678929}}, "scope": "GOOGLE", "icon": "https://maps.gstatic.com/mapfiles/place_api/icons/generic_business-71.png", "vicinity": "#A107, Adithya Elan, New Temple Road, Nallurahalli, Whitefield, Bengaluru", "rating": 5, "photos": [{"height": 333, "photo_reference": "CmRaAAAAjOcoP7tbU6mazotLUiZQeIS_3QlTY1qBOHw2vE-OSEdsoyqe2Iy5CKvu5JGkEeLJ6e9NAR0fOnrDGi7ksAnkc6QFLK67zGbqanzinCnW7XNxao7ToAwoz61oK99yZJPHEhDkNzJyqhxXKJNEoEUDpyoXGhRvwqsbtovjEQO6nL6JTde5kaOPPQ", "html_attributions": ["<a href=\"https://maps.google.com/maps/contrib/106142809495958454125/photos\">Ranjith Yadapadithaya</a>"], "width": 634}], "id": "3c72c8ea48a3fae08ccf0e20ae27e7a56b0ee5f0"}, "ChIJ6SsE-BwSrjsRf9kTjLMQgMU": {"place_id": "ChIJ6SsE-BwSrjsRf9kTjLMQgMU", "reference": "CmRSAAAAhQxD99oZAlSBZtH6esqAhXOLqE_0nuTrEpvWSxdzL1RL6HW0ajWhBOfc5rBe6sh5wvXhpcylVdsCkKbTr-qOlo6MHvE4EUD2VUtkPUxIX8YZHTAtTg_R2Q_DzyZhxY9dEhCCi4rQs0D56tLONCr7fUMEGhRWhrgkNUR56m7FyTZ5TomP1CGmfA", "name": "Brigade IRV Centre", "types": ["point_of_interest", "establishment"], "geometry": {"viewport": {"southwest": {"lng": 77.72984595, "lat": 12.9689930697085}, "northeast": {"lng": 77.73270495000001, "lat": 12.9716910302915}}, "location": {"lng": 77.731055, "lat": 12.9700554}}, "scope": "GOOGLE", "icon": "https://maps.gstatic.com/mapfiles/place_api/icons/generic_business-71.png", "vicinity": "Nallurhalli, Whitefield, Bengaluru", "rating": 4, "photos": [{"height": 2322, "photo_reference": "CmRaAAAA2vqgzmbEiQZPg0pdWeETnJFNGGKmv6IOxt8Lr_pCiN-5F33VueHjt9NIOgs40s0PLJOuYDLUo-9byhiSR5H6FLX03BTQgaP7qrNb9WuWs8_NkZB3TT4fKkm4XNZe5z8sEhCscng2SGwUPS3knMkk38xkGhQm29PEsV404zJhhJg69rm6PcWCQA", "html_attributions": ["<a href=\"https://maps.google.com/maps/contrib/116939328885011297349/photos\">Kishore Reddy</a>"], "width": 4128}], "id": "4a524288c2b2feb280d278a2ab318a54405fbfa7"}, "ChIJ2cUoehwSrjsR8UziF7NWdV0": {"place_id": "ChIJ2cUoehwSrjsR8UziF7NWdV0", "reference": "CmRRAAAAzotw0B9dfipqAsOu7JHwsXJziXu1SVYKtS-CHpczX_E1ZapRPXQMckjjzIuQN1w6rAz9yq52uBq8ObDaU5JdOMDCOj2cXcnz6mgOuRDJNXYbPhQ3ib6_zZFV2KPFz8AyEhBNXBkNreuWA6F5gE8MI8IGGhSzu2hcgcx4yLDNQ_2pgUg5c9kz7w", "name": "Adithya Elan", "types": ["point_of_interest", "establishment"], "geometry": {"viewport": {"southwest": {"lng": 77.7296654697085, "lat": 12.9666577697085}, "northeast": {"lng": 77.7323634302915, "lat": 12.9693557302915}}, "location": {"lng": 77.73095459999999, "lat": 12.9680214}}, "scope": "GOOGLE", "icon": "https://maps.gstatic.com/mapfiles/place_api/icons/generic_business-71.png", "vicinity": "New Temple Road, Nallurhalli, Whitefield, Bengaluru", "rating": 4.6, "photos": [{"height": 1037, "photo_reference": "CmRaAAAAvJBIQYCiz_7VQhIG9SV5iaX4Ji1VlFB2n0-7Xtbyid-ykufrWztrpgRpGeLhz6bIBNr4QXuHLTXaN918_Kqy5DfpF6AidT3stbx0G5MIAzcGUYLGd6iLVzdu-Lt0spbnEhC5NMbyOU-lLnfjtVv0CzkIGhRN3E918ynyvDI-JKIPa1hGDd3Vaw", "html_attributions": ["<a href=\"https://maps.google.com/maps/contrib/106142809495958454125/photos\">Ranjith Yadapadithaya</a>"], "width": 1555}], "id": "c05eb345f4a77ec4d1a3b9a00d192ce639cbb6d8"}, "ChIJkSK7VhsSrjsR8b-I8i4H8sQ": {"place_id": "ChIJkSK7VhsSrjsR8b-I8i4H8sQ", "types": ["home_goods_store", "store", "point_of_interest", "establishment"], "scope": "GOOGLE", "icon": "https://maps.gstatic.com/mapfiles/place_api/icons/shopping-71.png", "opening_hours": {"weekday_text": [], "open_now": false}, "reference": "CmRSAAAAPlh-vvx_VxnT8PUW8leCXAGl7n8HUh8qwKmHkAxYXxQQCe4VSpsvgmbaJ-hFiIsXojpzFfYAQjM_dE6zZGnzIXfZKhgcPcpgEGKAkLCRUCf1h_wZdBTPm1_zf0iyOaF_EhAQjKDns2YyUbTeyGDgNWCjGhSJdz0pdMHhYWjNdL72Y4z1zK2fMg", "name": "Aishwarya enterprises", "geometry": {"viewport": {"southwest": {"lng": 77.73203751970848, "lat": 12.9646569197085}, "northeast": {"lng": 77.7347354802915, "lat": 12.9673548802915}}, "location": {"lng": 77.7333865, "lat": 12.9660059}}, "id": "8aa73361300fb7dc039146bca7fc803d6dcfc28e", "vicinity": "#56/9, shop #2 nalluralli siddapur road Whitefield, banglore", "rating": 3.7, "photos": [{"height": 1152, "photo_reference": "CmRaAAAADBXprOVhCrVafBrAeAc6CSNR7oRjY5XldBIsUEup4Lvh79ZsxqdTAts2_Lc60wEJsQZvNZwocBAgiAwocTT_h4VXrUZQG4DI8mEUXiJHTw4McSMGF5w9Y8sxm5KDG10wEhD-vhNAzt_BuoyNAknP3cmNGhSuyA3y6t7PTT43aMT2cWuZJsVsKg", "html_attributions": ["<a href=\"https://maps.google.com/maps/contrib/110138099205221153684/photos\">Aishwarya enterprises</a>"], "width": 2048}]}, "ChIJV9Be7PURrjsRLQ3QR4C5FMo": {"opening_hours": {"weekday_text": [], "open_now": false}, "place_id": "ChIJV9Be7PURrjsRLQ3QR4C5FMo", "reference": "CmRSAAAAIwLbntscDOobXgnj0CppBuj_qdr5YcQztpVXNcFXkDfpy-NcB7no9aP-AbunYJAay40T_yNXYHmjyyL9wN-Pt2WTsPG5XjCuBJiGrs3DB_bQbNX-492PHFEK62QjZMCpEhBkKAXZy-V8jep60ShUUYdYGhSTxDxb8pawT-x2Uszo0jJYu0Hxbg", "name": "Avembsys Technologies Ltd.", "types": ["point_of_interest", "establishment"], "geometry": {"viewport": {"southwest": {"lng": 77.72545201970848, "lat": 12.9731210197085}, "northeast": {"lng": 77.7281499802915, "lat": 12.97581898029151}}, "location": {"lng": 77.726801, "lat": 12.97447}}, "scope": "GOOGLE", "icon": "https://maps.gstatic.com/mapfiles/place_api/icons/generic_business-71.png", "vicinity": "Level 2, Prestige Omega, No. 104,, EPIP Zone, Whitefield, Bengaluru", "rating": 4, "id": "5cbd8c0a0c2ffef45725d38c650d74f11d2310c3"}, "ChIJrZ0TQQMSrjsREu1-Zb2mO7M": {"place_id": "ChIJrZ0TQQMSrjsREu1-Zb2mO7M", "reference": "CmRSAAAABVdwCW4lumQi8PfLtm1MxCuzrKMfC6-YB8WFd6Zr8aNuoSRTPXGE6FKsnzvmXejHAEL2_JvG-zYpr85ZbEzs0ieqOjcWU9r3olbrCaHXSlUnw3BPKxIHw07Xzt5wdyJXEhDsvSX9McENQLUR5JoQQ9wqGhQ36US7XI7rqtM7gbjVYSBcQYCrGA", "name": "Nandini", "types": ["store", "point_of_interest", "establishment"], "geometry": {"viewport": {"southwest": {"lng": 77.7336022197085, "lat": 12.9680637197085}, "northeast": {"lng": 77.73630018029151, "lat": 12.9707616802915}}, "location": {"lng": 77.73495120000001, "lat": 12.9694127}}, "scope": "GOOGLE", "icon": "https://maps.gstatic.com/mapfiles/place_api/icons/shopping-71.png", "vicinity": "121/2-118, Nallurhalli, Whitefield, Bengaluru", "photos": [{"height": 2592, "photo_reference": "CmRaAAAAUizcDloTy6tqv9PS3VDMsi14MabTeD_DfYJsE16rfOwV3XSoYaEJe5sZFG60T-BOY3LTRztVMgt_qTSVB_t9pYExoBh7IJ6CaH_Mc7fFHiIAKOYxMgNnOqsqLX-dyfaSEhBhIhiO67IilAm7R1q_8s7WGhTBOILjRuDJkNrncOhXBFO1W7GN8g", "html_attributions": ["<a href=\"https://maps.google.com/maps/contrib/114089214734306610867/photos\">Vasanth Kumar</a>"], "width": 4608}], "id": "09be7a9ac8f2e8d5b0357a45d8443073ce18dbca"}}, "77.75": {"ChIJjSu2b_4NrjsRg7li9sckSfs": {"place_id": "ChIJjSu2b_4NrjsRg7li9sckSfs", "reference": "CmRSAAAAq5i6vaG2ymXTJy6iTNRWU5CoFgr9o0bh4NV-wsgJdXy9qaKzB2MTcjQ4DYrIppUrUf9MFPQAP_Nb_6U683VVI2ErzrGHRNfwsTt2GtcDhEZ_ww8dfX6GNs9nh1GcSAtkEhD8xkPTMyWE-7ZmgSPPBLY2GhT0brxxzlNXiFLeUZY_MggasWqB0w", "name": "Maha Ganapathi Temple", "types": ["hindu_temple", "place_of_worship", "point_of_interest", "establishment"], "geometry": {"viewport": {"southwest": {"lng": 77.74857551970848, "lat": 12.9713915197085}, "northeast": {"lng": 77.7512734802915, "lat": 12.9740894802915}}, "location": {"lng": 77.74992449999999, "lat": 12.9727405}}, "scope": "GOOGLE", "icon": "https://maps.gstatic.com/mapfiles/place_api/icons/worship_hindu-71.png", "vicinity": "Ramagondanahalli, Whitefield, Bengaluru", "rating": 4.4, "photos": [{"height": 3000, "photo_reference": "CmRZAAAAcWTpCoiTdrc-HIyQwJN-j8qIw5s3YFmS9_M7fOn_O4wjlQ0my-J2-ANhH7uHCOrBOd9Xbiys_DNJcJOQtNKUC4fTivfA35lL4hrMUQSEYkmMLRtK8HBboqY_kCV-_4KuEhDP72bEaDpQaOqtJl6z5J5QGhResXdlC4DsDCyvBWLsO5wI0ibfOw", "html_attributions": ["<a href=\"https://maps.google.com/maps/contrib/111166319390201928275/photos\">Srinivas Shastri</a>"], "width": 4000}], "id": "391a45d4f36215e75d38279da5721bbdf76b286d"}, "ChIJd9zw8v4NrjsR8gZEZaOuKp4": {"place_id": "ChIJd9zw8v4NrjsR8gZEZaOuKp4", "reference": "CmRSAAAA212DuwRky-sU8FcHbu2dZDaLmTwp12xj2r0pdpExtIZBhRMOgA4Ca89l1V1sj8x5BqMNdpBt4FF9QkHm-82k7SRnaY7iqTB1NJWpdWZ2dj9q4Ss2IVXDf8CH6JVbYqp6EhAEQc4A51bOMw7mE7zE-WDwGhS24OVwqCHvk4MnHnPrWQtreXRiFw", "name": "Cheshire Homes India", "types": ["point_of_interest", "establishment"], "geometry": {"viewport": {"southwest": {"lng": 77.74622901970848, "lat": 12.9717259197085}, "northeast": {"lng": 77.7489269802915, "lat": 12.9744238802915}}, "location": {"lng": 77.74757799999999, "lat": 12.9730749}}, "scope": "GOOGLE", "icon": "https://maps.gstatic.com/mapfiles/place_api/icons/generic_business-71.png", "vicinity": "408, Outer Cirle, Whitefield, Bengaluru", "rating": 4.2, "photos": [{"height": 3456, "photo_reference": "CmRaAAAAob3saSkCQSr6-9A-oe-ylthndA2Ksbc0ULIAJ-jxnxZv-NQaoWaULBoPRC9P97JwvkR6FRd1M8ZjY1WQSwVqZSGvRDpCr_Wb5ErpNk-VxiBS6yrMsmV56vBNqQ54E38wEhAloWbmittKLXnbrF2QYpv2GhRwREZBPM0BIIxr4q6UL4fTINed9Q", "html_attributions": ["<a href=\"https://maps.google.com/maps/contrib/110206445918585614539/photos\">Suresh G</a>"], "width": 4608}], "id": "ee419c47152e55aa954cb1c0cea73fa6f95ecf75"}, "ChIJ3zj-mf4NrjsRv9dWzoidp2s": {"opening_hours": {"weekday_text": [], "open_now": true}, "place_id": "ChIJ3zj-mf4NrjsRv9dWzoidp2s", "reference": "CmRRAAAAQgJ6obtdsLKtgwiHPEUCMDA0E2xo_u8ej5npr_6MiVhxACN7XRGNz4zlCqu3Wk5a5ExFoSv3Dnc26ocmWi6XkBjmlIWWQwBUHKlDNbZpfBVqrKDGsVwgb_uHXWY6uuIVEhCykXT851yZmQZc2HWIkdprGhQl5llYRLd-ROjL82mugN3aEWD22w", "name": "Univercell", "types": ["store", "point_of_interest", "establishment"], "geometry": {"viewport": {"southwest": {"lng": 77.74882301970848, "lat": 12.9697460197085}, "northeast": {"lng": 77.7515209802915, "lat": 12.9724439802915}}, "location": {"lng": 77.7501875, "lat": 12.9710933}}, "scope": "GOOGLE", "icon": "https://maps.gstatic.com/mapfiles/place_api/icons/shopping-71.png", "vicinity": "State Highway 35, Sathya Sai Layout, Whitefield, Bengaluru", "rating": 2.8, "id": "fb518777b76196946120f535154b97bec345f605"}, "ChIJ-7NpL_kNrjsRLkJ0RsfAC9M": {"place_id": "ChIJ-7NpL_kNrjsRLkJ0RsfAC9M", "types": ["post_office", "finance", "point_of_interest", "establishment"], "scope": "GOOGLE", "icon": "https://maps.gstatic.com/mapfiles/place_api/icons/post_office-71.png", "opening_hours": {"weekday_text": [], "open_now": false}, "reference": "CmRSAAAAq-Z756PYlRfKyQK6MuyLGSKVZNB1veJTxCBTtBUJuZ5lpnyoj0Z-Z1yjtrrl6GoN5hmS_J_iRN-tboPcYP86klbpsdQoqhC1AikIH1pJTqt-OzpdkK-6kIHK8au59jUCEhBZVJ_m82HhAIFHGVSrYvbbGhTX1LbncBmp7Y4nQ6VV01A45lqZwQ", "name": "India Post", "geometry": {"viewport": {"southwest": {"lng": 77.7468309697085, "lat": 12.9670095697085}, "northeast": {"lng": 77.7495289302915, "lat": 12.9697075302915}}, "location": {"lng": 77.7482083, "lat": 12.9684124}}, "id": "4f5cd28b023a95b68165856ee1624830053b0ff9", "vicinity": "Borewell Road, Whitefield, Bengaluru", "rating": 2.8, "photos": [{"height": 3120, "photo_reference": "CmRaAAAAyJaPkiHrdKGxdPjJA10VKFz8-c6Dnx50apAjgP72g4Kqhrj5KAEsTZjNe4rvsr9Nk_6qB6nc3nHwZ__zfOP6Kb-FGnBZNT8_veWRKstuu3pL_ydm6mQPnS_bCEulSVZiEhAYmMMcDDFSSmEFW5WX7DnqGhTCKP017bu7KP_-Lb_xHf78k-PoMg", "html_attributions": ["<a href=\"https://maps.google.com/maps/contrib/114795726854855823862/photos\">Sandip Nair</a>"], "width": 4160}]}, "ChIJXQc0T_YNrjsRP9IMvo6NhwI": {"name": "Daily Bread Gourmet Foods (I) Pvt Ltd", "reference": "CmRRAAAAqw_oV6cVVK9zSD6Ux7lefQNM9XQPudw5akgx_j-dUhfpvDRsWxL_xBQLBdyEHagNx-fyLLkiiXxxVgQJkzZvMtgTdV3xZ-Y7sXaki2x1ldCtJUaZH5oYzP0Op9-NMXALEhBV4pRhED8_avdFfMGnBGfsGhTHv8NK-MXvn4Nu8nHj5oosINgJFQ", "place_id": "ChIJXQc0T_YNrjsRP9IMvo6NhwI", "types": ["bakery", "store", "food", "point_of_interest", "establishment"], "geometry": {"viewport": {"southwest": {"lng": 77.74859781970851, "lat": 12.9684509197085}, "northeast": {"lng": 77.75129578029151, "lat": 12.9711488802915}}, "location": {"lng": 77.7499468, "lat": 12.9697999}}, "scope": "GOOGLE", "icon": "https://maps.gstatic.com/mapfiles/place_api/icons/restaurant-71.png", "vicinity": "Forum Value Mall, White Field Main Road, Near-B B M P Whitefild, Whitefield, Bengaluru", "id": "227b5c321652a729ce6e3794b0d06fc9fb07f59c"}, "ChIJC_mFuf4NrjsRy2RcQ7CArkA": {"place_id": "ChIJC_mFuf4NrjsRy2RcQ7CArkA", "types": ["bank", "finance", "point_of_interest", "establishment"], "scope": "GOOGLE", "icon": "https://maps.gstatic.com/mapfiles/place_api/icons/bank_dollar-71.png", "opening_hours": {"weekday_text": [], "open_now": false}, "reference": "CmRRAAAA1FPH_9Xi9WPxGYu-u8gycGZChujRqx2lHwVs9JEWLlSTxCKWKSIoPFN3IIsYt0ZXum14LWp1el0GgkMBJ3rchLH-TKTq5NR08ToCn84IKBIC6n6HQtC1R9_rdbUUTojcEhAOLa3K3S5ZuQvE8iX3ydpsGhQ0VVb5dElJRdYWv5lXq1S8wV2kiw", "name": "City Union Bank", "geometry": {"viewport": {"southwest": {"lng": 77.7483743197085, "lat": 12.9685331197085}, "northeast": {"lng": 77.75107228029151, "lat": 12.9712310802915}}, "location": {"lng": 77.7497233, "lat": 12.9698821}}, "id": "beb9aac80e619581c8710795cf6eb0cf31268cd4", "vicinity": "295, 1st Floor, Whitefield Main Road, Opp Mayura Bakery, Whitefield, Bengaluru", "rating": 4.1, "photos": [{"height": 1038, "photo_reference": "CmRaAAAA3rYygbvZNM5M5FCl4GY-oGhMP0Nuit55Jt89y7xxVCMkavYDThuopQkxVs8RPSdP7zUvtT5LQvW_wW6tuJFdM5gzgSxwXLKuOkGFezGhPh3ZCtf2_mQGUFo1Fo3TF3A_EhBuyFZ-4jg9C4FjPCWg5luRGhQY7A5qnLGrNbxthmGbhxbvP8sbKw", "html_attributions": ["<a href=\"https://maps.google.com/maps/contrib/101160447758941087946/photos\">naveen r</a>"], "width": 2381}]}, "ChIJyU-6kP4NrjsRmKiJYHrsLEc": {"place_id": "ChIJyU-6kP4NrjsRmKiJYHrsLEc", "types": ["supermarket", "grocery_or_supermarket", "store", "food", "point_of_interest", "establishment"], "scope": "GOOGLE", "icon": "https://maps.gstatic.com/mapfiles/place_api/icons/shopping-71.png", "opening_hours": {"weekday_text": [], "open_now": true}, "reference": "CmRRAAAA8gB2FJQvANJLhyQUJ5ZfVuixNk_E_YHNHI30alBH5nxzzd4Kx646M8Z3Eu71urei2nzfmQXcHs6rlCyLDFgEQfNdqWaTnknwqjJPQF4m1UCLwijfiK49ztMq7_E6mJ8YEhBH3FZLLgvo22_e5Nt_07O8GhS3zhMlVJtQStsFQaLeWZaspiMhxA", "name": "Reliance Fresh", "geometry": {"viewport": {"southwest": {"lng": 77.7488304697085, "lat": 12.9695427697085}, "northeast": {"lng": 77.7515284302915, "lat": 12.9722407302915}}, "location": {"lng": 77.7502429, "lat": 12.9708809}}, "id": "fd85b4a3f16f0bf2a371645f647e9e2102d30e87", "vicinity": "1, Whitefield Main Road, KIADB Export Promotion Industrial Area, Whitefield, Bengaluru", "rating": 3.6, "photos": [{"height": 4640, "photo_reference": "CmRaAAAAIxNFTAvC4uDf80EN5oJOR9t-Zhp-LEJ3j48A_tJDLiHwmvIZY9AB_H6Y9FIH9aNF7JLujZrH2TiAX0bvL8m-hrfL9b5DthPZ5u0NRUUHpglkqpB-WyWpWfH05Z-MPct1EhAu_YgGh7H6Od0v03lPTyh4GhTmnXqstBgYdlzZ16mWU20-S8ImmA", "html_attributions": ["<a href=\"https://maps.google.com/maps/contrib/115366518553220825186/photos\">Gyandeep Muni</a>"], "width": 3480}]}, "ChIJ7ywx0QASrjsRWNUeNvMPN5Q": {"place_id": "ChIJ7ywx0QASrjsRWNUeNvMPN5Q", "types": ["point_of_interest", "establishment"], "scope": "GOOGLE", "icon": "https://maps.gstatic.com/mapfiles/place_api/icons/generic_business-71.png", "opening_hours": {"weekday_text": [], "open_now": true}, "reference": "CmRSAAAAZBGwZPZsMqGrftfbhLcqFNjHf9_o97swKxDjOIVgMTpxGZxC753oq8h86SHtLSOHhCalJgkel8TUj9Gx5CLvQ85S6qd0-9FdnVjcbUcztcFC2nZViD4aWlL5R2uOjgXnEhDlWIV7xeKkFMHS2y2qubO7GhRNE2OgtJmhMXYmek1Azsv6fhRSjQ", "name": "Evoma Borewell Road - Business Center- Whitefield, Borewell Road", "geometry": {"viewport": {"southwest": {"lng": 77.7464450197085, "lat": 12.9669500197085}, "northeast": {"lng": 77.74914298029151, "lat": 12.96964798029151}}, "location": {"lng": 77.747794, "lat": 12.968299}}, "id": "539afee72c35a84a69eb6f025401e67fe2977759", "vicinity": "# 88, Borewell Road, Near Borewell Road Post Office, Whitefield, Bengaluru", "rating": 4.2, "photos": [{"height": 2848, "photo_reference": "CmRaAAAAc3vAKKHAEa3GSW0r1xsEs5i_ug2nCbPgbEyIEDKHdye8QS1OwwegWxra9ia094-d7joNviL0Xss1V7_iwNSTUA6XsYmxKfROpkxylLw5ktqLuw6E9lHRMqrQqQNg7gInEhCf0M6AQblK8ppmmkYOse3FGhTlVOC0ZnQBwkQwidkUB51FAQCflQ", "html_attributions": ["<a href=\"https://maps.google.com/maps/contrib/109562001698244784197/photos\">Evoma Borewell Road - Business Center- Whitefield, Borewell Road</a>"], "width": 4288}]}, "ChIJEX5NY_4NrjsRC8jEnKIA-pk": {"name": "Sky 2c Freight Systems", "reference": "CmRSAAAAFv0H9HKT9XCUPOJBXR8ox3Ok17t2QcDYl5VG5ykeGAI2RrKOUuA54Mkr3OwoXcZFvOc7bIi64U-7NGCWfCT23HrM4Z38MGb7i3s6Hh0Tdxw8XYTwTbVzTR17lXFLeTkZEhBkkZuFuhvyGgQQwIK-_oaOGhTHc4h7kWwTTFBTafLDiayY-dEjEw", "place_id": "ChIJEX5NY_4NrjsRC8jEnKIA-pk", "types": ["point_of_interest", "establishment"], "geometry": {"viewport": {"southwest": {"lng": 77.74881051970848, "lat": 12.97046611970849}, "northeast": {"lng": 77.75150848029149, "lat": 12.9731640802915}}, "location": {"lng": 77.7501595, "lat": 12.9718151}}, "scope": "GOOGLE", "icon": "https://maps.gstatic.com/mapfiles/place_api/icons/generic_business-71.png", "vicinity": "P-4, 2nd Floor, Administrative Builing No-1, Old Building, Inland Container, Depot, Whitefield Road, Bengaluru", "id": "ec31114bbac0981eee44115e8d8f17ab8a24a057"}, "ChIJz_DNH_8NrjsRGalorL4dZ6w": {"place_id": "ChIJz_DNH_8NrjsRGalorL4dZ6w", "types": ["school", "point_of_interest", "establishment"], "scope": "GOOGLE", "icon": "https://maps.gstatic.com/mapfiles/place_api/icons/school-71.png", "opening_hours": {"weekday_text": [], "open_now": false}, "reference": "CmRSAAAAZmVXc6EPuxQgczz0z8xIJw-u1WB6kbDiFcPpN_Hp7MwmfRiitQmXstVkqBFZnd9h2NzvBp60N1CLWcERQQMWxUYLrYTXPrSZjmetlNlD8Wo-NkR_0txDgwKOKvE9VEAyEhAmyow0ctsguT0ZZFIkIIptGhRI-Pp0rYqkNwXG4HmX_h834UGZlQ", "name": "The Bangalore School", "geometry": {"viewport": {"southwest": {"lng": 77.7466978197085, "lat": 12.9692688197085}, "northeast": {"lng": 77.74939578029151, "lat": 12.9719667802915}}, "location": {"lng": 77.747958, "lat": 12.97057}}, "id": "d98fabe22a2e27e2c9787e7b8ff4af613466866f", "vicinity": "No. 307, Inner Circle Road, Dodsworth Layout, Whitefield, Bengaluru", "rating": 4.8, "photos": [{"height": 3864, "photo_reference": "CmRaAAAAARYf4xKRcv-5wqt9l9JnZyusvY4rbvIVxmdmO49-ct5FQzQGwV4XtUlt0fwCTuiJ-tETqHg2yUeK52DmKZkT0LzmzjjyezEuc82coTiP8DNQKKn2ybDuO3K9IMFOo2J5EhDnegqtYM9P5NZQRb9P948lGhRt6kAz-qd7a-C4RL5I1T6kbgVPGQ", "html_attributions": ["<a href=\"https://maps.google.com/maps/contrib/107858578925189680966/photos\">The Bangalore School</a>"], "width": 5152}]}, "ChIJqQIfnP4NrjsRD1bV4Ll1JE8": {"opening_hours": {"weekday_text": [], "open_now": false}, "place_id": "ChIJqQIfnP4NrjsRD1bV4Ll1JE8", "reference": "CmRRAAAAZPlsZPVs2GSH_L4r7AXBMklNBzlDdSQc-WRxCIg-HdbkgMZ-T_Ycx_GF8ee3alstiAzz1ko3UOE02rrzexTHrCti5tu9t5e8WxgFbk5eohzPvQj9LNGTkCSCdgSkIF7hEhD8VMSJCC2x6NoT44xc7VAuGhTSI9E92fyK7x8X2bxzio_qdKCsKA", "name": "Dental Surgery", "types": ["dentist", "health", "point_of_interest", "establishment"], "geometry": {"viewport": {"southwest": {"lng": 77.74930201970848, "lat": 12.9694300197085}, "northeast": {"lng": 77.7519999802915, "lat": 12.9721279802915}}, "location": {"lng": 77.75065099999999, "lat": 12.970779}}, "scope": "GOOGLE", "icon": "https://maps.gstatic.com/mapfiles/place_api/icons/generic_business-71.png", "vicinity": "Whitefield, Bengaluru", "photos": [{"height": 728, "photo_reference": "CmRaAAAAPLCt73IobrHNitlRSyv59VxgPLVc6RS1wQUaJnpWuBKRhlCk86n9fyZ6kmoLzH153LusTtdJYnnD6lwhkb17MGK7CGN1La03S36oa7wkPOtMWuUdn8G54f7OSArRabgbEhA2d7kt3kji6AA99WiWzI3BGhQvujOHreA-MT4SWCKfVuL-f8Kmhg", "html_attributions": ["<a href=\"https://maps.google.com/maps/contrib/100202152035449257305/photos\">Raj</a>"], "width": 1296}], "id": "38fd5ed0bbbe329d886f3f7c3104ac08cca14009"}, "ChIJ5YU0u_kNrjsRIwTj0yuRoRo": {"place_id": "ChIJ5YU0u_kNrjsRIwTj0yuRoRo", "types": ["dentist", "health", "point_of_interest", "establishment"], "scope": "GOOGLE", "icon": "https://maps.gstatic.com/mapfiles/place_api/icons/generic_business-71.png", "opening_hours": {"weekday_text": [], "open_now": true}, "reference": "CmRRAAAAYDf7NTafTfEvlSKzDrg0-EiDuey2rBB4kjVIwQAAMPP3EH_G7m6He2zXWaOJY7GyrR-i0pj-vNCrsPmUzJV6PRI_vcuvUR6PlUix6q8VIpbKCo2fxnozrcKtQCnilnq8EhC-XAgUspxNa63hbUlPk994GhQ7Nc-Xy4EgTvWOH_p9KEDAqTlQKQ", "name": "Axiss Dental Clinic - WHITEFIELD", "geometry": {"viewport": {"southwest": {"lng": 77.7478021197085, "lat": 12.9640808197085}, "northeast": {"lng": 77.7505000802915, "lat": 12.9667787802915}}, "location": {"lng": 77.74915109999999, "lat": 12.9654298}}, "id": "f9c11847f40379d773aedf3fe094c89820e38aef", "vicinity": "No 12/4 A 2, Whitefield Main Road, Opp. Hindustan Lever Ltd, Whitefield, Bengaluru", "rating": 3.6, "photos": [{"height": 810, "photo_reference": "CmRaAAAAUzcEEbxKnVuFL6XctYuDBfseV2PWJXusSvwgvlcOyJZbgDr3pH2oQmlqOY6N1TJ0PJmhPhQQIJcE5_5Nj338IiJetPchA-Hh_FSdLRKW2o_G94xsxPiPgJVXxfXwVK6gEhAkrrMhcDCZb6y0Q2qZUsOjGhSOUcChKSm1naY13tp7RGNg_r66TA", "html_attributions": ["<a href=\"https://maps.google.com/maps/contrib/103589882120895985169/photos\">Axiss Dental Clinic - WHITEFIELD</a>"], "width": 1080}]}, "ChIJ2TXQRvkNrjsRtVQlGtclo8E": {"place_id": "ChIJ2TXQRvkNrjsRtVQlGtclo8E", "types": ["restaurant", "food", "point_of_interest", "establishment"], "scope": "GOOGLE", "icon": "https://maps.gstatic.com/mapfiles/place_api/icons/restaurant-71.png", "opening_hours": {"weekday_text": [], "open_now": true}, "reference": "CmRSAAAAQYHzlFdDM3jb93rSIZPvYxgQIVEbDBMtUchfyZ-bmmuwFCXhqrNxIt8yRfV5aLFb8xM5UNeAzCygLIZWH783_9N99cUUeTbuQvm69ea02gucrBDSVrVzG14T4I2T2UrVEhB7s59i4m-Swrmlf1XyneyrGhSTRTqDbrfhlWfrp4pDnqLAUZxvTQ", "name": "Herbs and Spices", "geometry": {"viewport": {"southwest": {"lng": 77.74836921970848, "lat": 12.9665798197085}, "northeast": {"lng": 77.75106718029149, "lat": 12.96927778029151}}, "location": {"lng": 77.74971819999999, "lat": 12.9679288}}, "id": "2895071fb0d5c8edaa57358ecd4ce3da7bba32f3", "vicinity": "154, Varthur Road, Thubarahalli, Whitefield, Bengaluru", "rating": 4.1, "photos": [{"height": 2610, "photo_reference": "CmRaAAAAgGsbouwpBb3BuZ0rFdzWjrA6vbUhYUVs5o80Vl6AG0BojUFU3xZL29AQfnpxUVCrs1UUfaoLTf_ma51v8xhTNcjSiypHfFgniQlwgHZnC_YINhnJBxDk4TWuA8bssIYLEhA_QM806y41-dp1JFvYZXfbGhSZfG468zJqmHiaA8tLP9woacfawQ", "html_attributions": ["<a href=\"https://maps.google.com/maps/contrib/112358567246808738585/photos\">Kiran Mohan Jaidas</a>"], "width": 4640}]}, "ChIJuUx8fjEUrjsRIs1KPHDIbrg": {"opening_hours": {"weekday_text": [], "open_now": false}, "place_id": "ChIJuUx8fjEUrjsRIs1KPHDIbrg", "reference": "CmRSAAAAq_hkcXujiluHUizyc4k02oeEl29jr4U2PLeDVeEPLFWoUFWnuowzrntOQhsGVKGiSMFTxDAHHDAgLL-7rD0GlwuNSYNOLfYO-_SmxeH-5dK1bjSGBaJ4ljj2qAJ4549QEhA_arXVZ1z1MSsPCsPG4C2XGhQ2IYrWTGlv8eLGH5NGGb6kt5ID6Q", "name": "House Of Colors", "types": ["general_contractor", "point_of_interest", "establishment"], "geometry": {"viewport": {"southwest": {"lng": 77.74825031970849, "lat": 12.9671294697085}, "northeast": {"lng": 77.7509482802915, "lat": 12.9698274302915}}, "location": {"lng": 77.74951349999999, "lat": 12.9684955}}, "scope": "GOOGLE", "icon": "https://maps.gstatic.com/mapfiles/place_api/icons/generic_business-71.png", "vicinity": "284, Whitefield Main Road, Dodsworth Layout, Whitefield, Bengaluru", "rating": 5, "id": "6e00e1f40965aabd5c66fd186e7fb8fb9c70aea4"}, "ChIJh3ky0PgNrjsRqyMdhaUFc1o": {"opening_hours": {"weekday_text": [], "open_now": false}, "place_id": "ChIJh3ky0PgNrjsRqyMdhaUFc1o", "reference": "CmRRAAAA-jG7LV9pMuLLK-Ii0szLztcD0rrdDruaBbt4XljtoII8XSk0pk9nezwZygSc8WLudK6y8Auud2wi8lQ4b0gUwQreZtf0ebuHJ1ytzuYNb3Ce8tXy98ufzkN2k98I0hpJEhAF0Uwk4-X7EKNE4NkTPfRbGhSmdbDPHZ6SfaMsFPAJnlpsFhjfDg", "name": "KLoc Technologies Private Limited", "types": ["point_of_interest", "establishment"], "geometry": {"viewport": {"southwest": {"lng": 77.74508776970849, "lat": 12.9668774697085}, "northeast": {"lng": 77.74778573029151, "lat": 12.9695754302915}}, "location": {"lng": 77.7463928, "lat": 12.967891}}, "scope": "GOOGLE", "icon": "https://maps.gstatic.com/mapfiles/place_api/icons/generic_business-71.png", "vicinity": "Suite 101, 88, Borewell Road, Palm Meadows, Dodsworth Layout, Whitefield, Bengaluru", "rating": 5, "id": "1eb85e78dd8e4b2c480ca0620947d73d4e2d69f2"}, "ChIJDWEBAPURrjsRZa3DMvx4Wv0": {"place_id": "ChIJDWEBAPURrjsRZa3DMvx4Wv0", "reference": "CmRSAAAAWpQ_z4FrYSmW76F56U4HftKPq_uN8GeYvzfn94KTZcDJy3rbv9HhOqi56m7qVNmRotRaNCE5CAPlIVX4hwmpl5L9yaqJVbRHmUbMksMBM0i8QrkI9quPfUTAW8Zk7LkYEhDyK4BvjMJF3XAQHv8WLqxUGhQ1cK36m8jo6mXqAeUc6hNflrWjAw", "name": "Feathers-Collection Satish Rajanna", "types": ["jewelry_store", "store", "point_of_interest", "establishment"], "geometry": {"viewport": {"southwest": {"lng": 77.7457269197085, "lat": 12.9669319197085}, "northeast": {"lng": 77.74842488029151, "lat": 12.9696298802915}}, "location": {"lng": 77.7470634, "lat": 12.9680554}}, "scope": "GOOGLE", "icon": "https://maps.gstatic.com/mapfiles/place_api/icons/shopping-71.png", "vicinity": "88/15, Borewell Road, Phase 2, Whitefield, Bengaluru", "photos": [{"height": 800, "photo_reference": "CmRaAAAA9jmkHjJ6nprCCukgyDkySa6u6D6j1rpDJlgPv3wuhcSblxw-WujRsyxeKQvG3U18i56HTO330pknLzxigwervfL7tAWnYNRsahCb7gzp80AX01GSYzMoqk_2i1D7Z_iBEhBfrjV0yTzCwY61sSDuM20qGhQrVGWFOf4rx7GQjSimKkYqij_nDQ", "html_attributions": ["<a href=\"https://maps.google.com/maps/contrib/108312008340673658390/photos\">Feathers-Collection</a>"], "width": 1280}], "id": "07fd5767065cccb05883a738713c7718b79806da"}}, "77.7": {"ChIJgyiCP4ARrjsRUXqTuDMs-aA": {"place_id": "ChIJgyiCP4ARrjsRUXqTuDMs-aA", "reference": "CmRSAAAAS8k96vMD_FfJFvS-Adi0m3wzx3ekay63hUpKO5hq7RkMIJA6RsFhqwIblmjpwulQAKU9OLux-GF8hse7Ea1MKl4WDYicQJO8vAPez-Qoj1A6suqGA5JWf5ygHUE8om19EhAptHr2z-hpvL3zt8qkYaSUGhQYzI4F_fQaaWJu_oMv3Ee91plHVQ", "name": "Alpine Eco Apartments", "types": ["point_of_interest", "establishment"], "geometry": {"viewport": {"southwest": {"lng": 77.69926386970849, "lat": 12.9715649697085}, "northeast": {"lng": 77.70196183029151, "lat": 12.9742629302915}}, "location": {"lng": 77.7007715, "lat": 12.9732773}}, "scope": "GOOGLE", "icon": "https://maps.gstatic.com/mapfiles/place_api/icons/generic_business-71.png", "vicinity": "No. 13, Doddanekundi Village,, KR Puram, Hobli, Bengaluru", "rating": 3.8, "photos": [{"height": 2448, "photo_reference": "CmRaAAAAedxMAUm_Xgewrf-DKpPkn_n0yxsYpOJx4eO_RF22117dl8Q4O3nN_SBtwuLzS-b6JBu8TdcPsNxJh6NkCkuEsPzEtylI8qTWApyyGdi6VeTXzCHVQdeLKiDMuYEBufhLEhDdFraEgPPSV5lFLnCBeZEyGhSjw_6BLPCykIzh2WaL5M1PzxBfoQ", "html_attributions": ["<a href=\"https://maps.google.com/maps/contrib/116110806048584214735/photos\">mbalaji singh</a>"], "width": 3264}], "id": "1e43c75a8411513260ca5f5d513af1a2abb4222d"}, "ChIJTyhwAvMUrjsRrQkcoEKJucU": {"place_id": "ChIJTyhwAvMUrjsRrQkcoEKJucU", "types": ["point_of_interest", "establishment"], "scope": "GOOGLE", "icon": "https://maps.gstatic.com/mapfiles/place_api/icons/civic_building-71.png", "opening_hours": {"weekday_text": [], "open_now": false}, "reference": "CmRSAAAAM275dJcVrPiFWrbWZcpCYuTZI7YgmUlwFzNgiE23yVw5I8MyNXdX-aXJiExKYVx_5bPefR2LN9TUzfQuHvFi_0nUqsWhYZf4tnbQQ2cfOMPzY-dTDFeipCQEeTECWwcPEhCJqzI7n2LWSkgs25_IMdkXGhSE4r2OhuMI6JaZT1SxETBKvqjwpw", "name": "ASAP Info Systems Private Limited", "geometry": {"viewport": {"southwest": {"lng": 77.69602256970849, "lat": 12.9732118197085}, "northeast": {"lng": 77.69872053029151, "lat": 12.9759097802915}}, "location": {"lng": 77.697323, "lat": 12.974241}}, "id": "256c35ca6ffd0ae1763c05f8906fe41f74f88b67", "vicinity": "SURVEY NO. 9/1 ,DODDANAKUNDI VILLAGE, K.R.PURAM HOBLI , MARATHALLI OUTER RING ROAD, Bengaluru", "rating": 3, "photos": [{"height": 4160, "photo_reference": "CmRaAAAA2tp1v1ViDvU2dRzk3GN77iheUFpUc-CExbkRoTqDKhNaUg6XcR42Nc5K6Ip0t6M-Xc7w3yY84fhSlrLs80nNZDeWQF1ILrlTcspVF47snH-c00Rk5YB_YW_rTOMYU_DdEhAh12kqoJIRFLntw7cJSjtmGhR_BHT-VVI23YWNeDf7iEYxhCZgtg", "html_attributions": ["<a href=\"https://maps.google.com/maps/contrib/108455523126441431298/photos\">Dinesh Kumar</a>"], "width": 3120}]}, "ChIJqfJGIisSrjsRGLJfpX-2x4I": {"place_id": "ChIJqfJGIisSrjsRGLJfpX-2x4I", "types": ["cafe", "store", "restaurant", "food", "point_of_interest", "establishment"], "scope": "GOOGLE", "icon": "https://maps.gstatic.com/mapfiles/place_api/icons/cafe-71.png", "opening_hours": {"weekday_text": [], "open_now": true}, "reference": "CmRSAAAAc9Xm-zGYjYcfuWHE4DaGTpXgu9citzk5ecMcWTR32wWeaL-T4RM7jmFG9OMueTAyolgyI3MSyStNF9GqamSLjuQ1g0bu-z95ypd4FsBQX5vZ_wvIe6w9qns_zKcKzu2EEhA6Bx5GpUuOPe0ucXnUsrS0GhTLxT_HeWJnHzyGTJMzM_-w2BJS0g", "name": "Cafe Coffee Day", "geometry": {"viewport": {"southwest": {"lng": 77.69953406970849, "lat": 12.9675763197085}, "northeast": {"lng": 77.7022320302915, "lat": 12.9702742802915}}, "location": {"lng": 77.70083079999999, "lat": 12.9688886}}, "id": "db63163d0b7640d4891c92bb279ee1c5b35b46d0", "vicinity": "98, Karthik Nagar, Outer Ring Road, Bengaluru", "rating": 3.7, "photos": [{"height": 2208, "photo_reference": "CmRaAAAAoifhgfBSJjc40MEnqusv9pPbNf-LTWrp6mrUypK2sshu3XGok1DHcUNEYGcA4C1r_Rb43W3lZLQbU31oG4jIn8nTBPLO0G8FBfcVfXcl693XP1-Wa8bOdiv1cQrLNoVSEhBkj-lN8ty9PMMKGt5kz5fQGhQdJ4rMNPkvlc1qHupJCW0OuxcAoQ", "html_attributions": ["<a href=\"https://maps.google.com/maps/contrib/102267505783194733722/photos\">Aditya Kumar</a>"], "width": 3920}]}, "ChIJK8BZqFsUrjsRrmuHoIebfAw": {"place_id": "ChIJK8BZqFsUrjsRrmuHoIebfAw", "types": ["point_of_interest", "establishment"], "scope": "GOOGLE", "icon": "https://maps.gstatic.com/mapfiles/place_api/icons/generic_business-71.png", "opening_hours": {"weekday_text": [], "open_now": false}, "reference": "CmRRAAAAo-1iS4Pfocg-yAFksTPiDO0wLfNjhreKRxU0Yvnh44FiX_fhg_LjhAi3VbW6xclOBhbLiWxZ1BhYx43HON-1hCC-YDhuikvEOS0YmyVL8_PNAAJKss6_43j8mQVprNtrEhDoHUVi17kMlawfl4mJOSXYGhQUb2viYR8T9TMIjEMOesPVyV2-AQ", "name": "JR Housing Developers Pvt Ltd", "geometry": {"viewport": {"southwest": {"lng": 77.69921001970849, "lat": 12.9680290197085}, "northeast": {"lng": 77.70190798029151, "lat": 12.9707269802915}}, "location": {"lng": 77.700559, "lat": 12.969378}}, "id": "392006c9c1b716cd68a6ee96dded3a6d11cc6ac9", "vicinity": "UB Eliga, No.90, 2nd Floor, Karthik Nagar, Service Road, Marathahalli ORR, Bengaluru", "rating": 4.7, "photos": [{"height": 281, "photo_reference": "CmRaAAAAvYpoCraJX1Ef-SNOhwoY0Ds7ZWT_sIo7DHS1Qq1qR-iPaW7fqjeGBTPc7htTYq8-Ufvur2uUHL1nVh9J_lOxZp72jbpN8X2V0n8_QA0fdQ3BQtCLWV2oHissIJw4-m7vEhC3ZIdXpxWbDoRjrrMtVscpGhSPLQjaa-DGjzvGLpriUycipHLS_Q", "html_attributions": ["<a href=\"https://maps.google.com/maps/contrib/100988477304671001950/photos\">JR Housing Developers Pvt Ltd</a>"], "width": 938}]}, "ChIJl3uP7MwTrjsRSJjyk5nF3Rc": {"place_id": "ChIJl3uP7MwTrjsRSJjyk5nF3Rc", "types": ["bank", "finance", "point_of_interest", "establishment"], "scope": "GOOGLE", "icon": "https://maps.gstatic.com/mapfiles/place_api/icons/bank_dollar-71.png", "opening_hours": {"weekday_text": [], "open_now": false}, "reference": "CmRRAAAAulRIrA3IeVj4Y16FclMoBPhOj7EcmzQ2oLRt_wR_qSMaPZDm2E2gO8UcjBjOuPGLHYkovuxkYoO5fqQEbJ0JPfZPR6pFVVKw1Sj0T76WUK6SQePoaXBlAjc-ejrcwJdMEhCmzppuQpNVwrzF2HXMAGkiGhSvKFNfC8gLimNJDs1urFaF95UINw", "name": "Axis Bank", "geometry": {"viewport": {"southwest": {"lng": 77.6989618197085, "lat": 12.9684828197085}, "northeast": {"lng": 77.70165978029151, "lat": 12.9711807802915}}, "location": {"lng": 77.7003108, "lat": 12.9698318}}, "id": "711d5b980cd8797dee11acfff9d283b21913cf22", "vicinity": "SITE 43, VARTHUR MAIN RDMARATHAHALLI, Bengaluru", "rating": 3.6, "photos": [{"height": 3120, "photo_reference": "CmRaAAAAR6NBI84HCSlcv4U-MugX4H-bHwVp94_85KDWh-xgKNE3xV20ZsFd_MEkhgS8lPBM86PVt7qRcOKn8r4CAsjomSiA15HB4XBSdFqx1soXpCraSMwirdcwrHCFRLkzkJZAEhDBNZSDuXNBEo5s1_X2ySHhGhRmESQ2OW1VB88DHL_EjLWUNfpSvA", "html_attributions": ["<a href=\"https://maps.google.com/maps/contrib/116869254352908455972/photos\">Arun J</a>"], "width": 4160}]}, "ChIJryRcECoSrjsRQwxLa2CJ-yI": {"place_id": "ChIJryRcECoSrjsRQwxLa2CJ-yI", "reference": "CmRRAAAA4aX28DF6YsP6kFnOLBC_7sefEI-IaCjTGvSwvHzEwaGsOyiTjbLNJdT52XD5W2qqHVZXvVyBxIYmdHOE3RtXqW1bRIoJkkqKz28OqJdJK_y1DoZzL_RwyIrFklL0csnxEhAWV-1gsYvsIwmdJ3iMDpzZGhQzUDB60gafH0mZxzqLWK67zzaYWg", "name": "Ekya School ITPL", "types": ["school", "point_of_interest", "establishment"], "geometry": {"viewport": {"southwest": {"lng": 77.7031221697085, "lat": 12.9703084197085}, "northeast": {"lng": 77.70582013029151, "lat": 12.9730063802915}}, "location": {"lng": 77.704302, "lat": 12.9715496}}, "scope": "GOOGLE", "icon": "https://maps.gstatic.com/mapfiles/place_api/icons/school-71.png", "vicinity": "2851, Friends Layout, ITPL Bypass Road, Doddanekkundi Extention, Bengaluru", "rating": 3.7, "photos": [{"height": 3264, "photo_reference": "CmRaAAAAdQOXD-LBjg1ksplArxAVLcsVSeTNvsmQMGUQVG99c3PPfOH9A_NSQqblg0KngHAdRo7nh-KvZ-fYNsjD50k6e75V3b4mA1pA6wpkXggRhfNuJ8M68nNl5g5LwHxADgf4EhDfaWwA0RsMYNpSxCmOeAW0GhScDY3BF4pA6mSrbd0gAbcowlArkQ", "html_attributions": ["<a href=\"https://maps.google.com/maps/contrib/109512996228810616745/photos\">Ekya School ITPL</a>"], "width": 4928}], "id": "7269bf7525ee44288b8574c1ba90d2fc57dca106"}, "ChIJvw1JITUSrjsRQRm0JCcdH7g": {"opening_hours": {"weekday_text": [], "open_now": false}, "place_id": "ChIJvw1JITUSrjsRQRm0JCcdH7g", "reference": "CmRSAAAA0XWITWlPVqw8o636k3xhbkJWjMV8TRf9QpHJSHw5Nuyc_xD31qR82lWWUgN5YJMTNe3_YQWqnPnjBt58ImVgx1rJ5cAvo7xVKkXK8bs5ol-U5lMPKO7LhBjADJ7f3EShEhAfApgbasRbGSDjw4A09Iw3GhRSGHucrJbw6-kbzwKaxtryE_6wfg", "name": "Serra International Preschool - Marathahalli", "types": ["school", "point_of_interest", "establishment"], "geometry": {"viewport": {"southwest": {"lng": 77.6993601197085, "lat": 12.9687406197085}, "northeast": {"lng": 77.70205808029151, "lat": 12.9714385802915}}, "location": {"lng": 77.7007091, "lat": 12.9700896}}, "scope": "GOOGLE", "icon": "https://maps.gstatic.com/mapfiles/place_api/icons/school-71.png", "vicinity": "#73, Krishna, LRDE Housing Colony, Karthik Nagar, Doddanekundi Village, Marathahalli (Outer Ring Road), Bengaluru", "rating": 5, "id": "5ca5850b96c4a7143cee922f69dce0a7da3704f1"}, "ChIJASwLRtUTrjsR9CQEudLOjBU": {"place_id": "ChIJASwLRtUTrjsR9CQEudLOjBU", "types": ["point_of_interest", "establishment"], "scope": "GOOGLE", "icon": "https://maps.gstatic.com/mapfiles/place_api/icons/generic_business-71.png", "opening_hours": {"weekday_text": [], "open_now": true}, "reference": "CmRRAAAAJyeaWL8vynWdaxMlBm4kR43Rgej58o-1PunmTdbgXQ_DHICLie8hXsweGbRrierkD7NTIfQnWkRuClwUpMdeKm3DoF-RI6GbdNeTH4s_p-vZuk4leXvWQZSa3MFr2z2yEhB-QDAde4Vu9DGwgCp3b02xGhTIIPUuTm8lb2U5Cn6e9WQ0toIkrw", "name": "Oriflame", "geometry": {"viewport": {"southwest": {"lng": 77.69731041970849, "lat": 12.9697243197085}, "northeast": {"lng": 77.70000838029151, "lat": 12.9724222802915}}, "location": {"lng": 77.6986594, "lat": 12.9710733}}, "id": "686c99cb8f073c9cb0b8056dcbfe4f2ddc58bb1f", "vicinity": "Park Ville Simi Solaa, Doddanakundi, Outer Ring Road, Near Marathalli, Bengaluru", "rating": 5, "photos": [{"height": 960, "photo_reference": "CmRaAAAAZeJPjIHDvgNlA-GMRGPg_bALeB8KqN4YyeTuLABcXWBcYCvpfTQ6vA_HSEJFo1tc7WRRa-vUWFhkvEK5tTYXWJ0NHwqzNHV5p6JP6h0Lk0sjyag0gsR4OiNH1pS311mCEhDA6RyKxUnbl6bbwTff-EPtGhS1HfHZIvqicW8rIaTiaTKOWo8rWg", "html_attributions": ["<a href=\"https://maps.google.com/maps/contrib/106906939707429832920/photos\">Oriflame</a>"], "width": 1280}]}, "ChIJ2___5CoSrjsRhNCGuKkHe_Y": {"place_id": "ChIJ2___5CoSrjsRhNCGuKkHe_Y", "types": ["school", "point_of_interest", "establishment"], "scope": "GOOGLE", "icon": "https://maps.gstatic.com/mapfiles/place_api/icons/school-71.png", "opening_hours": {"weekday_text": [], "open_now": false}, "reference": "CmRSAAAA-JLItH0YPm6jinsR0Ctw0pgse37WBFhVPI_fyQut9Axfbk-n-3YKEcWVoETuAXGSr5789j382smvI1WlyuYMENIB0vxfi0JEFPZrROuhROglIfGPRJAqv3D7Z1v2QVAdEhAtIv6Ue_hxl7JYv0Qs089lGhTZH8sy2IpN_mwz6XFZG4bYFT46xQ", "name": "Atlanta Montessori School", "geometry": {"viewport": {"southwest": {"lng": 77.69926711970848, "lat": 12.9690779197085}, "northeast": {"lng": 77.7019650802915, "lat": 12.9717758802915}}, "location": {"lng": 77.70061609999999, "lat": 12.9704269}}, "id": "b7251e72cb6f4c6fa7d92f2e0c538d8b81b1027f", "vicinity": "Outer Ring Road, Marathahalli, Bengaluru", "rating": 4.5, "photos": [{"height": 4160, "photo_reference": "CmRaAAAACMxZcFOMLkDCaHOyr1PS4uj9b3XWts03bzwYz4CJloY7pm2BkqkZgevXVyIHvAoxOwuMUye-lQ8mxegJkxhj3M4a7XihxWchizK73hC81v4edadwwioepAD4sJuNrS7FEhA1oawid2IsgqHyb_tMVypDGhSSwMHEKxBaAQGNSvuDAPWkG-ozHw", "html_attributions": ["<a href=\"https://maps.google.com/maps/contrib/108145724462082722925/photos\">Kumar</a>"], "width": 3120}]}, "ChIJUXpYjCwSrjsRL5lQjApyozA": {"place_id": "ChIJUXpYjCwSrjsRL5lQjApyozA", "types": ["point_of_interest", "establishment"], "scope": "GOOGLE", "icon": "https://maps.gstatic.com/mapfiles/place_api/icons/generic_business-71.png", "opening_hours": {"weekday_text": [], "open_now": true}, "reference": "CmRRAAAA6KWiMqfZQDEQtKrZFiDh0JKSye220bDxyPTAVTsZc-4KzRu8aYX-tHTIEHQ09F3M8UNsPjjkkrFxjG1BVQEcz7Sj3awMNaz5dL2wbHPFLqfAsCh-yCAy_E6pgySD5711EhBgZmRVhqCMwHgAU70M-M7KGhThW2dV16_Y-uNJGMzWS4QRn3lfGw", "name": "Infusion", "geometry": {"viewport": {"southwest": {"lng": 77.7004809197085, "lat": 12.9641403197085}, "northeast": {"lng": 77.7031788802915, "lat": 12.9668382802915}}, "location": {"lng": 77.7018299, "lat": 12.9654893}}, "id": "b25c283f3786b77639001c34d388d994ff9b73b7", "vicinity": "95/3, 1st Floor, M R Plaza, K R Puram Ring Road, Near-Lotes Bussiness Hotel, Marathahalli, Bengaluru", "rating": 3.2, "photos": [{"height": 800, "photo_reference": "CmRaAAAASptX4ii3R_1km_x-3ACYBgX9-4Qy2UMDoR-9isxcvKQU9M34bLlVyGiCAkTstF7-XDv84V7BoUEWJ7vgj_EnLKhSr0a7K46E8bd44e40oN4OOflz6mZYx7ngTvzzwxxzEhB3wPl2MDZSvMFSbxz8jVI_GhSJ4VPExu_-WLMVDmLUxQ9bL3ARSg", "html_attributions": ["<a href=\"https://maps.google.com/maps/contrib/105202514720235693075/photos\">Infusion</a>"], "width": 1280}]}, "ChIJxzERU7UTrjsRImhwS7oxKi0": {"place_id": "ChIJxzERU7UTrjsRImhwS7oxKi0", "types": ["finance", "point_of_interest", "establishment"], "scope": "GOOGLE", "icon": "https://maps.gstatic.com/mapfiles/place_api/icons/generic_business-71.png", "opening_hours": {"weekday_text": [], "open_now": false}, "reference": "CmRRAAAAX4zZqkHJP4U4GDO6OTf72ek0Y2iLsliX-BhZvlJFRSFF5WVinE9kX-ZZMLaBYnSOxRy07mCZcARm__L1oaAV8xrPOHH3bfyz9ABB4COX4hwG0XZ0GHVWiZRDFYzo1OjsEhATNKAIkJOXRiPby6hxCfZzGhRoBfxPDaOFs_dZ4bsbkzv5aLJMyw", "name": "HDFC Home Loans", "geometry": {"viewport": {"southwest": {"lng": 77.7006240697085, "lat": 12.9647548697085}, "northeast": {"lng": 77.7033220302915, "lat": 12.9674528302915}}, "location": {"lng": 77.7019193, "lat": 12.9661109}}, "id": "25c8723d6a6ebebc134335fd97cb0efeba9e777d", "vicinity": "1st Floor, No. 5, new PID No.085-W0050-2, Doddanekkundi village, Outer Ring Road, Marathahalli, Krishnarajapuram Hobli, Bengaluru", "rating": 2.6, "photos": [{"height": 2340, "photo_reference": "CmRaAAAAEVQFSAO-C5HzgC3jMkIvhAF9XCJMmVOZ2w7IegUq-sMZd2VVhCtgGBCXTNUgps3Pb9NwuB9ad0NeIbWduzYlR2CP_pxbH1gqblE_AeLAs7bEw_H23X76L0Fllz1pqOhEEhAjaN8pgzxcz_BI5aDWAwJDGhRGWBdRTym46qSxiLwXh3OEkTinWw", "html_attributions": ["<a href=\"https://maps.google.com/maps/contrib/107833704785541807080/photos\">ThiruMurugan R</a>"], "width": 4160}]}, "ChIJ2xt6jCwSrjsRorgT93cP36I": {"place_id": "ChIJ2xt6jCwSrjsRorgT93cP36I", "types": ["restaurant", "food", "point_of_interest", "establishment"], "scope": "GOOGLE", "icon": "https://maps.gstatic.com/mapfiles/place_api/icons/restaurant-71.png", "opening_hours": {"weekday_text": [], "open_now": true}, "reference": "CmRSAAAA-j_8txQ8GEGvzwJ9_6yqFzaduB8KpxJzXGhDV228kpmd2DNEcAgMom0_D1ZQ2Ie7JIELJj2vubINku3oDWut-e43yUtTnRE9VgK-W47L3jEyUmmb_OPGRj7jyh2r6lSAEhASyK7nSD-QncrgPIKdJ53DGhQcbX7yYvhlvujPNfmMZevMsmjChQ", "name": "Chilli Pepper", "geometry": {"viewport": {"southwest": {"lng": 77.70049271970849, "lat": 12.9640083197085}, "northeast": {"lng": 77.70319068029151, "lat": 12.9667062802915}}, "location": {"lng": 77.7018417, "lat": 12.9653573}}, "id": "f8468ae9eeafef7eefceb8055d3f8480e43b2970", "vicinity": "95/3, Kote M.R Plaza, Marathahalli-Sarjapur Outer Ring Road, Marathahalli, Bengaluru", "rating": 3.4, "photos": [{"height": 2448, "photo_reference": "CmRaAAAAfgaQrV-oLhRopIv-3vk4mYPBdgOnvb5yspKXymjWC13kn31sJnaWSSpcvngPhIwKQXxEa7dqjVp0qK1qnFwGQmNHoFbAIkVzhjfbbOhsptLfPxJwoNgY4aaq5hlfRknYEhAfUtWNUkWC4tZQa5YxFkUDGhTXd96DujgUKBIHavC79VgRwXL77w", "html_attributions": ["<a href=\"https://maps.google.com/maps/contrib/116727136402645110035/photos\">Chilli Pepper</a>"], "width": 3264}]}}, "77.71": {"ChIJMXz1nyQSrjsRapXq4IDC75I": {"place_id": "ChIJMXz1nyQSrjsRapXq4IDC75I", "reference": "CmRbAAAAVhnyJobZD5OtKykcrE9ifjRnF3V9lNZH1GUdY3WLQxW422IOmSQsbwGTByJpRn3aI8fmqE0aFlLYoz9YwSQT7NXGtJE_O3TPBCtSK6trvF-0QJAIvWeU0W9LWK7RAZe_EhDctArwqsJLFikzsKwzpVWkGhRAdnAXTzGlGjW2GrvSM2AuI-cthA", "name": "Brookefield", "types": ["sublocality_level_1", "sublocality", "political"], "geometry": {"viewport": {"southwest": {"lng": 77.706465, "lat": 12.9557469}, "northeast": {"lng": 77.73307799999999, "lat": 12.9781479}}, "location": {"lng": 77.7148376, "lat": 12.9712301}}, "scope": "GOOGLE", "icon": "https://maps.gstatic.com/mapfiles/place_api/icons/geocode-71.png", "vicinity": "Brookefield", "photos": [{"height": 2304, "photo_reference": "CmRZAAAAnI29EiUrnWHCNbb-Ns4J9WIzBCKxeRuuonjSjsQMSeOpVXSSGmmNZWYq_td5mhwa0CB3dJcwHMZnWgUbDCiOw0FNVr76Dt5Xs8_ibN7-NI1kE2fLK28z7oJPkQI0qZrOEhB_54qBwZJMwmSOL9I_LZa2GhTHp6PNdVOJqmj-eG_u1nJN3olvWg", "html_attributions": ["<a href=\"https://maps.google.com/maps/contrib/117431569619544979693/photos\">Arbaaz Jawed</a>"], "width": 4096}], "id": "2b5790f1f11e25ee36cb184ddb5b5ed40cc1d61e"}, "ChIJ-ctMeSYSrjsRXDeTC1zZqgM": {"place_id": "ChIJ-ctMeSYSrjsRXDeTC1zZqgM", "types": ["point_of_interest", "establishment"], "scope": "GOOGLE", "icon": "https://maps.gstatic.com/mapfiles/place_api/icons/generic_business-71.png", "opening_hours": {"weekday_text": [], "open_now": true}, "reference": "CmRRAAAAViuMxEX0AyU9A8WvN0mDmQ-xa8kAYTwwqqiChMgVZLQlfwnLoZze-S-Pz4EoNHfX10vZH68IQVkhjynj4UivJFNpWkOmjvRmi8-3JL4QI7lz6XMVOoSHjpd-JAD6sU2_EhCIlEWJYALhcBSHfymbK89NGhQhbx4lOzgTUncCFQp5Wb_zKeN6pQ", "name": "Concentrix", "geometry": {"viewport": {"southwest": {"lng": 77.7121947197085, "lat": 12.9663121197085}, "northeast": {"lng": 77.71489268029151, "lat": 12.9690100802915}}, "location": {"lng": 77.7132172, "lat": 12.9676365}}, "id": "efde588e50d6ef4bcd08a6cbc9a13239aed55ae0", "vicinity": "3rd Floor, Millennium Towers, ITPL Road, Brookefields, Bengaluru", "rating": 3.8, "photos": [{"height": 864, "photo_reference": "CmRaAAAA5tODrgglpH3wG75xpl8gCHsyB7pf7h7e0iMsnCjgXG-_Tat60Ca3yN1NGXiJ7Lx0EXkQdykmgpKRpaHynskfvTKoYhKfoyG-hKPPar8qbFXdtRzOCkN3RagGB6lp8rSUEhBHcPnZ7e0E0Dyel7qBj5YcGhRPYP7Fv4azWIPz708lkkPOVQu--g", "html_attributions": ["<a href=\"https://maps.google.com/maps/contrib/101497602508714702468/photos\">SarayuBranding</a>"], "width": 1152}]}, "ChIJtRvTgCYSrjsRjzhBI1Q_oSY": {"name": "OPS", "reference": "CmRRAAAAPoGZgZp2oGQ34EpIvODeIFrcJ-RLQKxSxhFjaqNWEI_ISInFE6okMJUHD0sgYYFulw5pOacMo-pwq1fRgW6drjoZU1ay93hcUYQJNxEL7vn62DJGQdiA29SkPUx7lSkoEhBu6VaRsjjQt73eWWPNVLspGhQSG1Q-P9aN7FdjeeX8zItpeExAKw", "place_id": "ChIJtRvTgCYSrjsRjzhBI1Q_oSY", "types": ["point_of_interest", "establishment"], "geometry": {"viewport": {"southwest": {"lng": 77.71248441970849, "lat": 12.9661974197085}, "northeast": {"lng": 77.7151823802915, "lat": 12.9688953802915}}, "location": {"lng": 77.7138334, "lat": 12.9675464}}, "scope": "GOOGLE", "icon": "https://maps.gstatic.com/mapfiles/place_api/icons/generic_business-71.png", "vicinity": "#HU001, Gopalan Splendour, ITPL Road, Brookefields, Kundalahalli S.O, Bengaluru", "id": "637c46ddf6f565d25dee57d7c4af66e502f51487"}, "ChIJLZJbgiYSrjsRTIR7-dIPlNo": {"place_id": "ChIJLZJbgiYSrjsRTIR7-dIPlNo", "types": ["store", "food", "point_of_interest", "establishment"], "scope": "GOOGLE", "icon": "https://maps.gstatic.com/mapfiles/place_api/icons/shopping-71.png", "opening_hours": {"weekday_text": [], "open_now": true}, "reference": "CmRSAAAACOvz6WsI6HI1-QqM6vyCsW1giyUF_lXW_MXt1JB2f0f1ccFxqGN7BKxh3foNm1EU_mF43orWraklACDKZ-fabzp1ARc2Kr1y6wyH367eUXMUvGpblNvTet_RUuvVtul4EhDwTZ1INqd0hHqVwJNMrqZHGhSmyE-Qq3hDVUcKzTq2JCMl-qM2Eg", "name": "Baskin Robbins", "geometry": {"viewport": {"southwest": {"lng": 77.7128620197085, "lat": 12.9659628197085}, "northeast": {"lng": 77.7155599802915, "lat": 12.9686607802915}}, "location": {"lng": 77.71421099999999, "lat": 12.9673118}}, "id": "6b7837e5406ad753ccf67eef9628cf5f6bbba61e", "vicinity": "Near Cmrit, Brookfields, Bengaluru", "rating": 4, "photos": [{"height": 1080, "photo_reference": "CmRaAAAAnILQEvnDS5yE6R3ZFJddsQAU-jCzQNtDLVCABXOr4VD3uQk_ucfLLhHgKJHbovrgZpqHL3e84QlxXITHgHo3IKEwoL5ZTVCvB1lggM1RacCmthOGcqaOiGcJVA9HTFBwEhDiiq9KDziNVk8D-UTTJJi-GhTy_kvLAVPdMUDRfxoA0W4aSYmQYA", "html_attributions": ["<a href=\"https://maps.google.com/maps/contrib/105640109986276566812/photos\">Phonaya Purpo</a>"], "width": 1920}]}, "ChIJ9dh76CUSrjsRcgILEGxDlng": {"place_id": "ChIJ9dh76CUSrjsRcgILEGxDlng", "reference": "CmRRAAAA-cJHqBdtuaWlM_RslTrehM_FMx9JtFp9Y9tOhvzibt4O988EWMDMD9HrtbOEkJFGxzd_pVULBj45lbrt0-IoghGiBheti3ieewDFijJM4dRymamppwUlCFKDoTFA6dp7EhAjsFV37rXd4bhsDFZkiWwpGhQmT4qXj2ZGVL3Ix_pjaGvxPL0kag", "name": "CMR Institute Of Technology", "types": ["university", "point_of_interest", "establishment"], "geometry": {"viewport": {"southwest": {"lng": 77.71082321970849, "lat": 12.9646938197085}, "northeast": {"lng": 77.71352118029151, "lat": 12.9673917802915}}, "location": {"lng": 77.7121722, "lat": 12.9660428}}, "scope": "GOOGLE", "icon": "https://maps.gstatic.com/mapfiles/place_api/icons/school-71.png", "vicinity": "132, AECS Layout , ITPL Main Road, Kundalahalli, Bengaluru", "rating": 3.7, "photos": [{"height": 3456, "photo_reference": "CmRaAAAACnfPymW5edgBmK2sQ-LGAAOW4oA4HtAOIpG_at-xY9jStGlRnFkJQm0E0DuMDq7PXAyU2TRMjbgUC22ORiDvATiBB9kH01LHmq2WhXM3JJowHarpFZSFyS37g-j5FWpNEhD6I4794Y60b6m9ZOi0tGBDGhRYTctcEQudzLaaBSz5tc1ZiIfJJg", "html_attributions": ["<a href=\"https://maps.google.com/maps/contrib/107960311621737981931/photos\">Mayank Kumar</a>"], "width": 4608}], "id": "6807919431a1697e58b8a31c23f42138dc7090f6"}, "ChIJb-EXsiUSrjsR9K-ub6-8tsw": {"opening_hours": {"weekday_text": [], "open_now": true}, "place_id": "ChIJb-EXsiUSrjsR9K-ub6-8tsw", "reference": "CmRSAAAAvI_6w2nFI11krIkNeAKVrZujI-TBz2NL6pYc2gqDkuXDBoU_42ELvCgZCKcx34WqisnMHvnaoOzUnBc0CC_ru82aHKrIv8_fS72mZE1IFA6HL4F-NtRedhe0edG5VnvhEhDY1n7FSmuZoqKqo7u0IEWCGhTr8UieKdZf1EaDhUtjLlmH4wLOUg", "name": "21st Century Realtors", "types": ["real_estate_agency", "point_of_interest", "establishment"], "geometry": {"viewport": {"southwest": {"lng": 77.71210191970849, "lat": 12.9641521197085}, "northeast": {"lng": 77.71479988029151, "lat": 12.9668500802915}}, "location": {"lng": 77.7134509, "lat": 12.9655011}}, "scope": "GOOGLE", "icon": "https://maps.gstatic.com/mapfiles/place_api/icons/generic_business-71.png", "vicinity": "175, 1st Floor, A Block, AECS Layout, Kundalahalli,, Brookefields, Bengaluru", "id": "e6cdaabee28c6fe601c9487fb52810c6b566a4d9"}, "ChIJOzNbNiQSrjsR5tsGJiJ0Q3A": {"place_id": "ChIJOzNbNiQSrjsR5tsGJiJ0Q3A", "types": ["atm", "finance", "point_of_interest", "establishment"], "scope": "GOOGLE", "icon": "https://maps.gstatic.com/mapfiles/place_api/icons/atm-71.png", "opening_hours": {"weekday_text": [], "open_now": true}, "reference": "CmRRAAAA_SsDnYMK5gY5dcc4EAuH4ogdLO-VZI9Leu9afAK1B1uOgUWq-UZn5checH79qXf51PiOOYQD4SpzI9pjlaB6g9OhpMMIK1SR8nfuzeUPVu0Aky7-uPSB9vh8m-yAwdr2EhC8DhMJb0DOuEK7lt78NBBmGhTLV4TCl4tvrS8Xct6dHZhM5U_lYA", "name": "Bank of India ATM", "geometry": {"viewport": {"southwest": {"lng": 77.7127185197085, "lat": 12.9646226197085}, "northeast": {"lng": 77.71541648029151, "lat": 12.9673205802915}}, "location": {"lng": 77.7140675, "lat": 12.9659716}}, "id": "8cc40e2452234764bc0c12621e063d3cb59fda1c", "vicinity": "B Block, AECS Layout, Brookefield, Bengaluru", "rating": 3.8, "photos": [{"height": 3120, "photo_reference": "CmRaAAAA47Vad9j8TgAS-XgFSJ0UWrJFepUP9a6JgoADZFi4Ws6oCFqrXcnsJJC83Xj-U8QbMryLIPlYp0SQvxS1eqSN6bgHIUqN07uKDH8TLozE-vY647UQiFH0WkMcFgzh6krLEhDaAT5reSYXnAsvqi4n9_REGhQosTrEDuHPbR0xtdkLae6CR3to3w", "html_attributions": ["<a href=\"https://maps.google.com/maps/contrib/106835486782202953759/photos\">Srikanth Reddy</a>"], "width": 4160}]}, "ChIJvcmGmQ4WrjsRgH4n7w1Zs-c": {"place_id": "ChIJvcmGmQ4WrjsRgH4n7w1Zs-c", "types": ["atm", "bank", "finance", "point_of_interest", "establishment"], "scope": "GOOGLE", "icon": "https://maps.gstatic.com/mapfiles/place_api/icons/bank_dollar-71.png", "opening_hours": {"weekday_text": [], "open_now": false}, "reference": "CmRSAAAAWf7voNVHllOH0es0NdstzIS9KXqnoX6eihOzrdB-nAwu5dKc27kNkLJ0lv5q4og_qYSluvbi4BMq9th1J5c9Bu0t8saPCRE1B6ROsFvgCHJ4RfvtsijPWinEDt-Gco3NEhAm-0YKTHv69qHuwr3qGaqJGhRtC5Ry-ACydljIog6o21WMuQ-kvw", "name": "Bank of India", "geometry": {"viewport": {"southwest": {"lng": 77.7129898197085, "lat": 12.9647196697085}, "northeast": {"lng": 77.7156877802915, "lat": 12.9674176302915}}, "location": {"lng": 77.7143426, "lat": 12.9660308}}, "id": "55028b0ca9c44fdc7e62fa41248c501e82ef959b", "vicinity": "334, Aecs Layout, 1st B Block, Brookefield,, Bengaluru", "rating": 3.5, "photos": [{"height": 3120, "photo_reference": "CmRaAAAAW6H8JooOFlQ0_1TyJ52B0rLm7o_Bqr79XlVYt1qhArpDCyoaLhtc_G-MhPpCPmOpekZtwOc6y1G7BAUDebmVOFOK5V9RcUdtG8HpoKYRtsqR9tZrp8OIwPP5pYNEjgIiEhAHkidns9lR9XrM4FYWLbd-GhR47LF0dKwglFh5od97Fm-njnm_lA", "html_attributions": ["<a href=\"https://maps.google.com/maps/contrib/100962971779518209077/photos\">md imtiyaz ahmed</a>"], "width": 4160}]}, "ChIJT4EWjikSrjsRGFK9s-M0K04": {"place_id": "ChIJT4EWjikSrjsRGFK9s-M0K04", "reference": "CmRRAAAAozqdj0_DpHQ9Llo8ISueub_lzKHPbQIJ5eAbqVFBNM66A0D0Mr6D6c0n8OXzpfvCL0d8zsXH8ND1n7FftQ6kEvRBulk79mEvi6Q3ct1hZX0QkqpFKOHUCSNP-pPRSTAcEhAYmyPYxz60OCnpIeofq10FGhQgGXRC-pvY6rZc3RSNYBsxGsoLiA", "name": "Bren Unity", "types": ["point_of_interest", "establishment"], "geometry": {"viewport": {"southwest": {"lng": 77.7050749197085, "lat": 12.9693394697085}, "northeast": {"lng": 77.7077728802915, "lat": 12.9720374302915}}, "location": {"lng": 77.7057662, "lat": 12.9706812}}, "scope": "GOOGLE", "icon": "https://maps.gstatic.com/mapfiles/place_api/icons/generic_business-71.png", "vicinity": "Chinnapanahalli Main Road, 9th Cross, Kartik Nagar, Doddanekkundi Extension, Bengaluru", "rating": 4.1, "photos": [{"height": 3024, "photo_reference": "CmRaAAAAzggBSLWqlMFiRycsXkGTTnu0tik9Yi8QKrKCxp_gu7ACsFlqyqeW6LyWWl20Jh40p-a7OYWbcS247wC5LBx-Ww9jrZEOCk7OF22G4jYNFD-mGcftssuhq95OFTaiOXjVEhB0Wf17Of7QrrArn2WZugDnGhTwwHqIF88MR5tL00QfxKBAK82QZQ", "html_attributions": ["<a href=\"https://maps.google.com/maps/contrib/107895901353857000697/photos\">Vivek Maheshwari</a>"], "width": 4032}], "id": "c95a1bcb91c2f6d0b0645d3e9143e14ec977b4df"}}, "77.72": {"ChIJVVVVVfkNrjsRLPbzNjt4aZQ": {"name": "Va Bene", "reference": "CmRSAAAAubld7LOhGXDgvIUxvoITpMLhmLddMODR9Z6U5dqW55mNUq1Z3XOsEBSihITFOhMdzpHbYxEnSC13FqGraPINwsFPoHwNZA9uABZOpcHv8ZwKRDe6KQ60wU72YCrVbtfqEhC-cwygTQ89I0sNgHsxl0tsGhSfJ2BEwVc_AEJtmnJFyBGvSRrqag", "place_id": "ChIJVVVVVfkNrjsRLPbzNjt4aZQ", "types": ["store", "point_of_interest", "establishment"], "geometry": {"viewport": {"southwest": {"lng": 77.71381261970849, "lat": 12.9730283197085}, "northeast": {"lng": 77.71651058029151, "lat": 12.9757262802915}}, "location": {"lng": 77.7151616, "lat": 12.9743773}}, "scope": "GOOGLE", "icon": "https://maps.gstatic.com/mapfiles/place_api/icons/shopping-71.png", "vicinity": "Building No. 23, EPIP Zone, Bengaluru", "rating": 4, "id": "c48337086ca8ea9d74117d728a6ad6fae45e438b"}, "ChIJM00f7okRrjsRcLvv3fuWYyE": {"place_id": "ChIJM00f7okRrjsRcLvv3fuWYyE", "types": ["point_of_interest", "establishment"], "scope": "GOOGLE", "icon": "https://maps.gstatic.com/mapfiles/place_api/icons/generic_business-71.png", "opening_hours": {"weekday_text": [], "open_now": false}, "reference": "CmRRAAAAqCLapSIgNzGCcMzvKIik1iIT5BUqz_GqB_IJ8G2x2lTR4yrTH9068vRLNE1VDhby5MIfWUYF0SUit0XxebJK40M4mmrYFKKBD21yC7knZ5Xm8oNdxdgrA6TlTFu0n-ZsEhB2jbRMU6TkoSvDvaKyRzQdGhQ4Ne-rBUc_E7ry1Ui7vbY2V1JBbA", "name": "Infinite Computer Solutions", "geometry": {"viewport": {"southwest": {"lng": 77.71487036970849, "lat": 12.9721832197085}, "northeast": {"lng": 77.7175683302915, "lat": 12.9748811802915}}, "location": {"lng": 77.7159665, "lat": 12.9737973}}, "id": "a7a59f41587fb47f7943d23ca9761566d16381f4", "vicinity": "157, EPIP Zone, Phase 2, Whitefield, Bengaluru", "rating": 4.2, "photos": [{"height": 3120, "photo_reference": "CmRaAAAAK3oeRCi8UvO9jvaOkEZRZ-5Ft_wt6CndIAriHEsMi8j2axfpDUF32PKzH7-CPnm6ovLCDUbySfc-hIN3OVSM5H21Lq-gWiU49PCoFBE5I6uQUajW7EslHV3FI-vmvyQQEhDj_QaBonBbYLJ2kmlpPRmmGhRNfh_uswqXGkrjksNeQjexsQNg5w", "html_attributions": ["<a href=\"https://maps.google.com/maps/contrib/109322114439091337797/photos\">Devil Speed</a>"], "width": 4160}]}, "ChIJyeTyCooRrjsRH9Da-61CKZQ": {"place_id": "ChIJyeTyCooRrjsRH9Da-61CKZQ", "reference": "CmRSAAAAzuiT6PgItGmFFkfIz0EXGOq7cyIk4XSIToN--zo-qo-QgepF5WvQv3Q0cGv2z4OJSq-hCvpeXi_hhx8AwNNE_B8BPGmCPnBeFemcQSZZ8icKcHWWTtb-0QSGDAN0oh9NEhBzrP04pPMRgxkl9cQfAwYbGhQyNJr-OdA2n_kmHWZ6vP7CsSP_bA", "name": "Lemon Tree Hotel Whitefield Bangalore", "types": ["lodging", "restaurant", "food", "point_of_interest", "establishment"], "geometry": {"viewport": {"southwest": {"lng": 77.7163321697085, "lat": 12.9709914197085}, "northeast": {"lng": 77.7190301302915, "lat": 12.9736893802915}}, "location": {"lng": 77.7178769, "lat": 12.9723698}}, "scope": "GOOGLE", "icon": "https://maps.gstatic.com/mapfiles/place_api/icons/lodging-71.png", "vicinity": "Plot No. 23, EPIP Zone, Whitefield Road, Bengaluru", "rating": 4, "photos": [{"height": 331, "photo_reference": "CmRaAAAASpuoiwk07HSpWloUM1SxfwFYsOXg8Qi68vAPYSMKMNqpRCQokwEQnLqZeKCiuRjORSEbfylP6P-bcUNC-V0BpAtQ7F-i-92COzK2AbJ8wJ5XwAMZpKV2hy1UKlmRfxFvEhDlX0xqt3EcSRAotVHUo0d1GhSlvebQ4QwZzVGINEZ7fO7nPoS-ow", "html_attributions": ["<a href=\"https://maps.google.com/maps/contrib/115170032112027364632/photos\">Lemon Tree Hotel, Whitefield, Bangalore</a>"], "width": 1331}], "id": "499e3499d0bdbf337792c447ff6ef8065102e9a6"}, "ChIJIx3ckiASrjsRohS29Af4WF0": {"place_id": "ChIJIx3ckiASrjsRohS29Af4WF0", "types": ["point_of_interest", "establishment"], "scope": "GOOGLE", "icon": "https://maps.gstatic.com/mapfiles/place_api/icons/generic_business-71.png", "opening_hours": {"weekday_text": [], "open_now": false}, "reference": "CmRRAAAAsK_HTYWl0jx2nd1hmn4pnaOXlRUsdr3qMXVOESUqUVfmk4wPAn9Zb2R915HSqQNGoZuWC0tdPJrNujUFbhjYEjAB4sQCL8tbXhxzzQ6_qA3MFxJ1tIRHFSy6eEIifPUZEhAie3Fllq52d-5RWxt6bO_fGhSpRp9czeSo76GTcMPlIAXtTHnCsw", "name": "Aptiv Automotive", "geometry": {"viewport": {"southwest": {"lng": 77.71652836970848, "lat": 12.9703965697085}, "northeast": {"lng": 77.7192263302915, "lat": 12.9730945302915}}, "location": {"lng": 77.7184063, "lat": 12.9720499}}, "id": "8bde781d56c694eed449f8648c9c2f7bd0dbc4ec", "vicinity": "Unit 1,2,3, Kalyani plantina, Kundalahalli, Brookefield, EPIP Zone Whitefield Road, Bengaluru", "rating": 4.3, "photos": [{"height": 3000, "photo_reference": "CmRaAAAAOydZBNamzQ-mHQxZ4NBrSleELCXaya6NkH3_mzmD8KGqThVbAUL1DQUWekDVmBrX4ZJHwwcVggdFd3X4G1bZ4G1z_cM2fxk-dXEBuaAygW__cL4aD0dCsFsIhlBRv6Z-EhCu3mjRsr4pATIcY6q3QWnCGhSipW9gtm4lJGWwnWSTUYjdukqOEQ", "html_attributions": ["<a href=\"https://maps.google.com/maps/contrib/107787356779407670948/photos\">Vineet Kumar</a>"], "width": 4000}]}, "ChIJPz2MxiASrjsRg3xJjQoOMNE": {"place_id": "ChIJPz2MxiASrjsRg3xJjQoOMNE", "types": ["bar", "lodging", "restaurant", "food", "point_of_interest", "establishment"], "scope": "GOOGLE", "icon": "https://maps.gstatic.com/mapfiles/place_api/icons/lodging-71.png", "opening_hours": {"weekday_text": [], "open_now": true}, "reference": "CmRSAAAAao6yXWGHN5GS2TGySC8ozXy2ckjvRVDEe0Ml_L64zsbOFr-Nt6qluR4WPgK6ndVGNUhNM5Hu_MZSjdGbnJCxMwoYUrQ1BYszW2qNb2uxjSDCMbeZ3PedMwfZepOfOUc0EhCsXVk8aKdcvAFlIHIZP7qIGhQzAFdTpiJgprFRw7V4zKjAMaSYpg", "name": "MGM MARK WHITEFIELD", "geometry": {"viewport": {"southwest": {"lng": 77.71614081970849, "lat": 12.9703641697085}, "northeast": {"lng": 77.71883878029149, "lat": 12.9730621302915}}, "location": {"lng": 77.717562, "lat": 12.9716244}}, "id": "6a5b2eab7951647eb7573a2f515be341937c250b", "vicinity": "23, EPIP Zone, Opposite IGate and, Next to Kalyani Platina Tech Park, Whitefield, Bengaluru", "rating": 3.9, "photos": [{"height": 2368, "photo_reference": "CmRaAAAA7NbTOaCJPBzI9BgqgBTqT6_0SGfd6xT7SlU8ekt_zXaF8MPAh89ZoUbgjQHvGNsVJK6kI3B21RpWjMRJnxGL_7Csv_iGNLynsei_FJLoikfw79oUWYNRgoGze_JQKJJ4EhCTpyTCMlE76xeUA66hyVyZGhSQ5Vtc2g_NjlAaF8wpBBGPvaIoPA", "html_attributions": ["<a href=\"https://maps.google.com/maps/contrib/105255260024651318274/photos\">Magesh M</a>"], "width": 4208}]}, "ChIJMeII2YwRrjsRGKHTsEM2o0E": {"place_id": "ChIJMeII2YwRrjsRGKHTsEM2o0E", "types": ["point_of_interest", "establishment"], "scope": "GOOGLE", "icon": "https://maps.gstatic.com/mapfiles/place_api/icons/generic_business-71.png", "opening_hours": {"weekday_text": [], "open_now": false}, "reference": "CmRRAAAA5NYtdpG0FGzopb0O66QxvAHdwGKuQAKQ6M3Od_HFZlbcZoGy7Q09dGqkDBaTosG5vMzP0N0BdtZ-cH8WnZ1xHnj9hxSwp2Nbd-ocyqLsBnmmhs59R5EtUIixlqYXwoAjEhBUKH_Myc2BPKI7fvvRIfWGGhTt9-Zv0o-k-ED3fdCBCUj2weN00g", "name": "Mashreq Global Services", "geometry": {"viewport": {"southwest": {"lng": 77.71608834999999, "lat": 12.96557545}, "northeast": {"lng": 77.71960175000001, "lat": 12.97357605}}, "location": {"lng": 77.7187234, "lat": 12.9715759}}, "id": "8999db58cb3285737b84e434eefd746dc6c1d579", "vicinity": "1st Floor, Phase 1 Kalyani Platina, No. 24, EPIP Zone 2, Whitefield, Bengaluru", "rating": 4.1, "photos": [{"height": 1920, "photo_reference": "CmRaAAAApuZRy8xpjarORyljrjl6NPtr30SjQEyDesuD0x4dfDdst5TH7fIkeV6MIRO61NGseeTpRm-ExzlydbXVET_lbwIvtqlxQoWpBdxRHeLHXbodOb-MNN7Y6vIcuFfKjrL4EhDcfLQWkNFtzoYKt1R-nPsDGhQdGBbNhzeb6qzfdNH4Pp-HOR4xcQ", "html_attributions": ["<a href=\"https://maps.google.com/maps/contrib/108679927405393499613/photos\">Raj kumar</a>"], "width": 2560}]}, "ChIJK_o7YjkSrjsRVbP6Xr1bGy4": {"place_id": "ChIJK_o7YjkSrjsRVbP6Xr1bGy4", "types": ["point_of_interest", "establishment"], "scope": "GOOGLE", "icon": "https://maps.gstatic.com/mapfiles/place_api/icons/generic_business-71.png", "opening_hours": {"weekday_text": [], "open_now": false}, "reference": "CmRRAAAAz4AILEExKTSZIQ1eEUSwuEKz5vGEiTHf4DLQMRhpNpXUiBUDoVvFEdatdiWcUEMmnxCI5TExYsNAid7EYJuERUg47_baWyy94qj-dTxKzuYmnvGi-t8AEhctLoGFKLWUEhDwMBxJam5xyPoOyOlgm86KGhRD5lJVoVT4svEA3fyyjmWce9V1xg", "name": "Airtel Broadband", "geometry": {"viewport": {"southwest": {"lng": 77.71716761970849, "lat": 12.9643151197085}, "northeast": {"lng": 77.7198655802915, "lat": 12.9670130802915}}, "location": {"lng": 77.7185166, "lat": 12.9656641}}, "id": "6f564098a5cf76221ae2ee7a4e5d7b3faf4eacfa", "vicinity": "Opposite Ayyappa Society, B Block, Aecs Layout, Brookefield, Bengaluru", "rating": 2, "photos": [{"height": 906, "photo_reference": "CmRZAAAAKVZi8x3YxotGdykEExiP-k4Zha97_dS0gF77Iv02L9TuBEezSeA6JqF-XgDoWYNkuowaqvTaKbQq-ajWWExpcPxPEJ3cXjQg3gyWtGQZ1nTlDL4K9z7GDxnn5mSyrTS2EhDwIdlXhl6s2WKf7-M_9PJVGhQ9cvogm7f7W7BJcNqerMnx7lJCgQ", "html_attributions": ["<a href=\"https://maps.google.com/maps/contrib/108433829417782395117/photos\">Airtel Broadband</a>"], "width": 2048}]}, "ChIJL2PssCMSrjsRa6o9grpFzAk": {"opening_hours": {"weekday_text": [], "open_now": true}, "place_id": "ChIJL2PssCMSrjsRa6o9grpFzAk", "reference": "CmRRAAAAvc87rerO9DYSRAnYppbRv450iF9y-WP8C0o8oP0gOg25zVWQ3qIVWN8GQt7I5xKaPAt3qy_M2QYna6eqQ4-b8sWFExrQF9NriYY6PeMu0Xd_Slx9lR6STDcPjct3i8kAEhBuSMkfjmnzrb9EbK6dYlT_GhSaKXk6wPxvkBa05PbKGPhpYK0ezQ", "name": "Prestige Smart Kitchen", "types": ["home_goods_store", "store", "general_contractor", "point_of_interest", "establishment"], "geometry": {"viewport": {"southwest": {"lng": 77.71751901970849, "lat": 12.9642140197085}, "northeast": {"lng": 77.72021698029151, "lat": 12.9669119802915}}, "location": {"lng": 77.718868, "lat": 12.965563}}, "scope": "GOOGLE", "icon": "https://maps.gstatic.com/mapfiles/place_api/icons/shopping-71.png", "vicinity": "C/o: Karuna Enterprises, ITPL Main Road, Brookfields,, Landmark: Opposite to Cosmos Mall, Bengaluru", "rating": 3.2, "id": "2f8d873900b9cd268f0ed7d3bdc15dc111f796c7"}, "ChIJZxGsbDMSrjsRbBCEz3c7lSM": {"place_id": "ChIJZxGsbDMSrjsRbBCEz3c7lSM", "types": ["shopping_mall", "point_of_interest", "establishment"], "scope": "GOOGLE", "icon": "https://maps.gstatic.com/mapfiles/place_api/icons/shopping-71.png", "opening_hours": {"weekday_text": [], "open_now": true}, "reference": "CmRRAAAAgD5pZoVRmnLh4CkZMCAgl0xiSDL1AYX4Ns3eEXqFPZzw0d6MJAlDUDFiYZJ2EDco4mdBVUYXLaJrIo7wfig8O7d1cCZxC79gl50YM6jFEjyI_tt9_RigojadBaGQp4dnEhA4aizJdXeF083xptPw8GYJGhRIjYKHtgC8zdBOMUOty5Nuap60Bg", "name": "Brookefield Mall Bangalore", "geometry": {"viewport": {"southwest": {"lng": 77.7167889697085, "lat": 12.9645056197085}, "northeast": {"lng": 77.71948693029151, "lat": 12.9672035802915}}, "location": {"lng": 77.7179232, "lat": 12.9660028}}, "id": "d0fd1ed0a8ba4f8a56cdade64dcfb05d9a8e4416", "vicinity": "ITPL Main Road , Sy No.111 &123/2, Brookefield, Bengaluru", "rating": 3.8, "photos": [{"height": 2340, "photo_reference": "CmRaAAAAQxoTw3sFbFAblXQfchzrf0Q9JASpLy6fzlKQHoMBSw5qOFUywKmLvVPuSfmmJ_1VnCsDT62fQFBHnHimzmhyVSZYt38JjA9gV6206ZV4SnBPqQ2GY5RlKgmsaZrw9237EhDUzANYMLRwMDVF47AaEwwtGhRq8sAiu9j09q0T9nCq61ylhv6mmA", "html_attributions": ["<a href=\"https://maps.google.com/maps/contrib/106221900815783984168/photos\">sai ram</a>"], "width": 4160}]}, "ChIJVVVVVfkNrjsRtqwxpBb3nHQ": {"place_id": "ChIJVVVVVfkNrjsRtqwxpBb3nHQ", "types": ["point_of_interest", "establishment"], "scope": "GOOGLE", "icon": "https://maps.gstatic.com/mapfiles/place_api/icons/generic_business-71.png", "opening_hours": {"weekday_text": [], "open_now": true}, "reference": "CmRRAAAABxfimHL_se4ZDMvSrFfNLNXOzQ-VwVNMacPNa8x6FHHTLmFS35EHNckDVv77w53G56UhqdDqmxKOsvvTlCMHkXv_3iUrl6V40TVXOdum8stF0OR7Nocm-B9W0RziayXmEhC0rHdFkuag_cOy8QQS74SfGhQxD0dYUsM4H2c2h02ukx5dTk4znQ", "name": "Accenture", "geometry": {"viewport": {"southwest": {"lng": 77.7240777697085, "lat": 12.96798945}, "northeast": {"lng": 77.72677573029151, "lat": 12.97243285}}, "location": {"lng": 77.7248385, "lat": 12.9691003}}, "id": "e1354947bbbc3707dfdda202006d91df5a74eeea", "vicinity": "No.36/2, Block TA, TB, TC, TD, TE Divyashree Techno Park (SEZ Kundallahalli Village, K R Puram Hobli, Whitefield, Bengaluru", "rating": 4.4, "photos": [{"height": 3024, "photo_reference": "CmRaAAAAfI87ZavZZatbqTvEHLIg9OJjMuFiQkignhdiHU9YanTVir58yqPUaLj5RUZFCeezmeqWc45ZygXfFT-ssv-ZKj4fgi-7z1BDsDZnAMVj4vPmJWkOQoJbTtdUpZ3lvEmyEhDe_p_OrHnqlKyzsQC2tXCLGhT8CV5SzlhBer1ATmk-3OvicoVimQ", "html_attributions": ["<a href=\"https://maps.google.com/maps/contrib/106919129518143063740/photos\">Akash khanna</a>"], "width": 4032}]}, "ChIJBb_k6iMSrjsRV3PQ06D0u1U": {"opening_hours": {"weekday_text": [], "open_now": true}, "place_id": "ChIJBb_k6iMSrjsRV3PQ06D0u1U", "reference": "CmRRAAAAcevFSbZ9Z1CtDM8W85rNBf1KbEeuK4I6oo8ir88xoZjprmVFXB6DKrejZB7ajsT2IepzassRMQHUJgEN0X5E333VixdraJLt2GLhVBWdEGTIx5ECO1Kt84YFx_TQ6CeBEhCNUBkS7YFIqEoJkqO_U964GhR8_5Z_p-qsw1oMPHKIT1H5vOju1Q", "name": "Khane Chal", "types": ["restaurant", "food", "point_of_interest", "establishment"], "geometry": {"viewport": {"southwest": {"lng": 77.71707881970849, "lat": 12.9648840197085}, "northeast": {"lng": 77.7197767802915, "lat": 12.9675819802915}}, "location": {"lng": 77.7184278, "lat": 12.966233}}, "scope": "GOOGLE", "icon": "https://maps.gstatic.com/mapfiles/place_api/icons/restaurant-71.png", "vicinity": "Opposite Cosmos Mall, Brookfields, ITPL Main Road, Kundalahalli, Brookefield, Bengaluru", "rating": 3.2, "id": "d5579605bda838dc45bbd221f6b21dc9d613f6c3"}, "ChIJaZh9sCMSrjsR0bM9Vbdzlpc": {"place_id": "ChIJaZh9sCMSrjsR0bM9Vbdzlpc", "types": ["bank", "finance", "point_of_interest", "establishment"], "scope": "GOOGLE", "icon": "https://maps.gstatic.com/mapfiles/place_api/icons/bank_dollar-71.png", "opening_hours": {"weekday_text": [], "open_now": false}, "reference": "CmRSAAAAVeYKp6zu0VcLIGrO60vLFsrutMopvg7ZgmqUFHQuAgvqSzYWPDbiPJVbfV3p4Mv5J3M5Ozpd1iT6iojhIiG5qiSV84YhuDxYX1Msfk8vbSZ9YnxaT8KbADGYaVOckpn5EhAWb4arejPJDIvsjhUcytSCGhRLmn_D8-cRX-gwJt4brM8GrsGVsA", "name": "Indian Overseas Bank", "geometry": {"viewport": {"southwest": {"lng": 77.7173631197085, "lat": 12.9642373697085}, "northeast": {"lng": 77.72006108029152, "lat": 12.9669353302915}}, "location": {"lng": 77.7187623, "lat": 12.9655663}}, "id": "1afc9369c2b46ab17686942b211626c0096e335c", "vicinity": "53/17, ITPL Main Rd, Kundalahalli, Bengaluru", "rating": 4.4, "photos": [{"height": 3264, "photo_reference": "CmRaAAAAC91YJMlYc8xLv9KL0t0MT9o8KvhRE-PPZcHjJgQTApXGSzNIKX-tScp1aRgW_N8QKUL1Q4pNjoa8vxx6ZpeLFrP__Y-xYDTYlNGnekdCmdSl0zwcGyAQnpS14mmuxxFxEhBVolSeong74IltccT9iRtVGhToGaSZ2QyjsNlsTUcg34If2eXuGQ", "html_attributions": ["<a href=\"https://maps.google.com/maps/contrib/103716945240301583768/photos\">TECH India</a>"], "width": 2448}]}, "ChIJAQAAcCESrjsRblXZ5Pc8Vcg": {"name": "Orissa Doot Pvt Ltd", "reference": "CmRSAAAA5HEzjqqr2Bb4Chhlre_9fvjEypaS1eA3FzGfrW0zmXSnileLDvHxiCjQ0gjxp6i7cAnhlXFR9PJbGms5VT3eIu2UIW0zdbwebw_crSAe_MzsRi26n3GvfboJ-4cjrNyjEhC7Av_qV-ya4QAyESVZbQRhGhRmM7Dnruf1PDPLICuItWCejhrJzw", "place_id": "ChIJAQAAcCESrjsRblXZ5Pc8Vcg", "types": ["point_of_interest", "establishment"], "geometry": {"viewport": {"southwest": {"lng": 77.71739001970849, "lat": 12.96683901970849}, "northeast": {"lng": 77.72008798029151, "lat": 12.9695369802915}}, "location": {"lng": 77.718739, "lat": 12.968188}}, "scope": "GOOGLE", "icon": "https://maps.gstatic.com/mapfiles/place_api/icons/civic_building-71.png", "vicinity": "Balajee Saptagiri Apt., Brookefield, Kundalahalli, Bengaluru", "rating": 1.5, "id": "f6d84357a6c39fd4b1a679a98dc9c66c029080de"}}, "77.74": {"ChIJhUHj5BESrjsRzqoeUGlSfC0": {"name": "The Courtyard Activity Centre", "reference": "CmRRAAAAKZz0KYMBhOkVH5-ZKiXq_jjwwZK1Ra5H6yjQdytU2eFSlWpnfdj0d1RsgOY_5j812gQqgLu20QD8p8XprBWn8ujvPRtLkZS8OrJZhVvr0ieIZU_xBmMONZ8xqU_8sEphEhCxsh4MJGIH0R_tr0sQ7yh0GhTQf1ImMCb7A2ltqT0AbqgfrkhiRw", "place_id": "ChIJhUHj5BESrjsRzqoeUGlSfC0", "types": ["point_of_interest", "establishment"], "geometry": {"viewport": {"southwest": {"lng": 77.74076751970848, "lat": 12.9680373197085}, "northeast": {"lng": 77.7434654802915, "lat": 12.9707352802915}}, "location": {"lng": 77.74213309999999, "lat": 12.9694414}}, "scope": "GOOGLE", "icon": "https://maps.gstatic.com/mapfiles/place_api/icons/generic_business-71.png", "vicinity": "#66 Dodsworth layout, Borewell Road, Dodsworth Layout, Whitefield, Bengaluru", "id": "f5e78bfc0f558fdd3fb1f9d9d25dbdf6a5d552d1"}, "ChIJEx21gAUSrjsRbDfXMXpIOX8": {"place_id": "ChIJEx21gAUSrjsRbDfXMXpIOX8", "reference": "CmRbAAAAsnqGzmLJTsOw0Q5wbU7SZcrKieAEpZu7_RpOO8YDCeDlJvZVuZuGCKlyUdBdRs7gqGzTm-jw1Jv0M4c2Tjcr8cVK9NgpMxL8hywI35_by-al_7nqLH7TyoFtDidtLP5FEhCK7D8c5nDS_66HTFCtnrrvGhRNOhze7sNCj3U6HpLwMJwHvVucLg", "name": "Palm Meadows", "types": ["sublocality_level_3", "sublocality", "political"], "geometry": {"viewport": {"southwest": {"lng": 77.730963, "lat": 12.9561689}, "northeast": {"lng": 77.7494959, "lat": 12.969378}}, "location": {"lng": 77.7423469, "lat": 12.9657776}}, "scope": "GOOGLE", "icon": "https://maps.gstatic.com/mapfiles/place_api/icons/geocode-71.png", "vicinity": "Palm Meadows", "photos": [{"height": 405, "photo_reference": "CmRaAAAAKr7gGOYp_AJ3qpk9GRPoqF2TBnxaTXq5MowpWnEplEPrKzwQnCxyuouq-FumNncPp3BAQ1FuoRZA7NPJB9wJmYh5Vem4KEV4HNywAbsq5ZY_Kj8Ts01APZJDzmnvtoOwEhAupEuTbAHfmdNMHL8UobffGhSXuUmVeWT-Brhb5_S6TEGTPyNzYA", "html_attributions": ["<a href=\"https://maps.google.com/maps/contrib/115582154343654566185/photos\">From a Google User</a>"], "width": 720}], "id": "255e84270f3e6e8199da707e83f21b2bf2b5915f"}, "ChIJowb0iwMSrjsRUTrQ4IwQK04": {"opening_hours": {"weekday_text": [], "open_now": false}, "place_id": "ChIJowb0iwMSrjsRUTrQ4IwQK04", "reference": "CmRRAAAAnYqQx3zyTtUo0sCAu6cXe_L3PMZVO1oZKve59hJUPA6S2rh7deam4MxIcIjZCxpkLd3XJY_KhSOtJSME3hALvAcWE0lecBey_UbBuTMROXMNcYYr9KEgEnQqZDeyvrNmEhCQ6H_3tFbCXCMDZzYPlsSjGhTdTMlTTeqQ7JugkP-tDjOZvLNY6g", "name": "Aila", "types": ["furniture_store", "home_goods_store", "store", "point_of_interest", "establishment"], "geometry": {"viewport": {"southwest": {"lng": 77.73638531970849, "lat": 12.9673658197085}, "northeast": {"lng": 77.73908328029151, "lat": 12.9700637802915}}, "location": {"lng": 77.7377343, "lat": 12.9687148}}, "scope": "GOOGLE", "icon": "https://maps.gstatic.com/mapfiles/place_api/icons/shopping-71.png", "vicinity": "A 102, Victorian View Layout, Borewell Road, Nellurhalli, Whitefield, Bengaluru", "rating": 3.5, "id": "30eaddc8acba8b31a4235b0219fcfa2a0c30917c"}, "ChIJDdrCnQMSrjsRU9SyDutdfYU": {"place_id": "ChIJDdrCnQMSrjsRU9SyDutdfYU", "types": ["atm", "finance", "point_of_interest", "establishment"], "scope": "GOOGLE", "icon": "https://maps.gstatic.com/mapfiles/place_api/icons/atm-71.png", "opening_hours": {"weekday_text": [], "open_now": true}, "reference": "CmRSAAAAzIspV-Honp3ACluXRL74uWkmhUEAAGlU7GC3RtCHhUCOLCf3ZygEkqERNzkr1PClYAOoOIPpG2BO7ZQk_bxtv5XxGx_5Jnh1JbWlRfUDo-WHSqxmLdd5QObLqU3zaj5nEhBdRFz4PxkTDf9vKI3x5sCkGhQHZ9OepEKjufru7mPd-wqnqsCzDw", "name": "Axis Bank ATM", "geometry": {"viewport": {"southwest": {"lng": 77.73539021970848, "lat": 12.9680509197085}, "northeast": {"lng": 77.7380881802915, "lat": 12.9707488802915}}, "location": {"lng": 77.736736, "lat": 12.969508}}, "id": "2ac1b7ed243a3fd8da618d769dedc0c36d04e9af", "vicinity": "Borewell Road, Nallurhalli, Whitefield, Bengaluru", "rating": 4.2, "photos": [{"height": 3328, "photo_reference": "CmRaAAAA_NYIIuZE9QZ_R2pNknrF3PBO21K3zIX6A64jZmq2kElNOy47AZiUSh9E8qDxH8-END9TfeaLXzBAH4A85_oetM51u9VD5nygsKfxK_J4eMlsGwZFyWcoQb1gjKRZQR-wEhBqg-AU9vRhgCNpO3XubKrMGhSH7D__nA8pIB-dosNIqoQFfxn1Cw", "html_attributions": ["<a href=\"https://maps.google.com/maps/contrib/116869091064335399414/photos\">BK Gajendra</a>"], "width": 1872}]}, "ChIJYTeVKgcSrjsRVVTJPEP323U": {"place_id": "ChIJYTeVKgcSrjsRVVTJPEP323U", "reference": "CmRRAAAAfToXk1jX27-l45kXED08sHemmiYsbZW9pcY3UTjKwMNDON_1bMCR8Nj7VViyEfMI8ejTSsq35_dZmOvWgoT2g5gcCWAedc5Db3cSlowwyOog0CZWRi5sANnjhzJC1HzVEhBvzjKnUV2-dvZ4BSCm2pUSGhR6H7wxjcg3n9HlDj3dhZ_AP0pU7A", "name": "Casa Gopalan", "types": ["point_of_interest", "establishment"], "geometry": {"viewport": {"southwest": {"lng": 77.7412582197085, "lat": 12.9674016197085}, "northeast": {"lng": 77.7439561802915, "lat": 12.9700995802915}}, "location": {"lng": 77.7424363, "lat": 12.9685201}}, "scope": "GOOGLE", "icon": "https://maps.gstatic.com/mapfiles/place_api/icons/generic_business-71.png", "vicinity": "Borewell Road, Whitefield, Bengaluru", "rating": 4.2, "photos": [{"height": 3120, "photo_reference": "CmRaAAAApxGrSz_SCdHjTqb90AAcWmVQAotVkfOSErS6Of35Vt4pS574PeSEJqjPIGrvQSF12q6OvdKy1q-rsI_zN9WQ_Uo0u2r68UP7dG3G0Teu-qMDNwVJMv0TF1Q72N_8heVTEhDxvemzSJhNzG6ZyBbyHQnUGhTrEiHb2IQAswzANru2mu9_UTDjYQ", "html_attributions": ["<a href=\"https://maps.google.com/maps/contrib/118165286677029687909/photos\">Anand Ks</a>"], "width": 4160}], "id": "1de77a8d1cab8085153248a347092a0f10e8d063"}, "ChIJp9MjgQASrjsRQSYJbqjl4Ag": {"name": "AKSAA Elements , Whitefield, Bangalore", "reference": "CmRRAAAA86TJvLBsBEVYqdiM0LZfwFW59eW9jwaO39peNZ5RpTSdwbf9lW6vZQQPZM8S4E6LPZ0yt8rL42Kxu4LQ1RaQC041WWp-8VtH3SQoMr6vXXiUk_hjzVahLz1xQv9KiwGpEhADVMeRKGvsPIcXBi0GN_NaGhQxB7M6opDzjenq1hmUAA5FGf-pRg", "place_id": "ChIJp9MjgQASrjsRQSYJbqjl4Ag", "types": ["lodging", "point_of_interest", "establishment"], "geometry": {"viewport": {"southwest": {"lng": 77.7413323197085, "lat": 12.9691304197085}, "northeast": {"lng": 77.74403028029151, "lat": 12.9718283802915}}, "location": {"lng": 77.74268130000002, "lat": 12.9704794}}, "scope": "GOOGLE", "icon": "https://maps.gstatic.com/mapfiles/place_api/icons/lodging-71.png", "vicinity": "46, 5th Cross Road, Dodsworth Layout, Whitefield, Bengaluru", "rating": 1.6, "id": "bd4242a7bdc6e5ab67b83607d9657a92cc0e28b4"}, "ChIJtfBtXQQSrjsRUNrV_kyrtVs": {"place_id": "ChIJtfBtXQQSrjsRUNrV_kyrtVs", "reference": "CmRRAAAAiJHcoTlj1rQD5XkgjeWL2hquJISiZocMHCcvzbWtkW-XphRgVPlmTNfssDCsYV4eBLOdHD1jKQgcNs5fbx_0Ay2gk3hPjmAOKbU4S4gOGHkc_DIQgGpSrLGYoGTr85e9EhBmQUL-hl58TjozF0URjgj0GhR9g5F8HayEuu28aouYmoNUCEBqxg", "name": "Victorian view", "types": ["point_of_interest", "establishment"], "geometry": {"viewport": {"southwest": {"lng": 77.73601911970849, "lat": 12.9656362197085}, "northeast": {"lng": 77.73871708029151, "lat": 12.9683341802915}}, "location": {"lng": 77.7373681, "lat": 12.9669852}}, "scope": "GOOGLE", "icon": "https://maps.gstatic.com/mapfiles/place_api/icons/generic_business-71.png", "vicinity": "Borewell Road, Palm Meadows, Nallurhalli, Whitefield, Bengaluru", "rating": 3.8, "photos": [{"height": 3456, "photo_reference": "CmRaAAAA6IbBKgrKRC5gqL6VkTs9z890uigbZJflOjKHjhyV-BZgeStdpvTBlwBQgqK-qI-R_v7DDoE2KtwuRV5tOiiA5IzRwTNuw1yWwBaNd7sHrQauU2W8ema11UHrRQ1BT5QtEhCbh8jXYNbG9mV1-07FZUMHGhSy9npj1SyZg8GzFPLQj-DMZ9d_YQ", "html_attributions": ["<a href=\"https://maps.google.com/maps/contrib/118349181529757664079/photos\">ameer awaiz</a>"], "width": 4608}], "id": "799d348a48d084e9696dafb349e6aa3d5edd8fbb"}, "ChIJC53SFAQSrjsRz6dt0Ufx-9Y": {"name": "Happy Valley Home Stay", "reference": "CmRSAAAAl3eQbZ4nVkLPOSFQuClgar0vtozb4jQFh5yG_6-VbRTKDIvsP4fR0y7JnYW1KleP9xT1L1tfa3DqAPtJ-VfwjG6pjEtRybyGsj5JXSnL2hhl2fZwSseYI6b3HAajwPF6EhA6AByOyKjIkiZGkoJVQ-MfGhRnk6MlfKZOCZV5uycMOjcS0jegdA", "place_id": "ChIJC53SFAQSrjsRz6dt0Ufx-9Y", "types": ["lodging", "point_of_interest", "establishment"], "geometry": {"viewport": {"southwest": {"lng": 77.7367136197085, "lat": 12.9658588197085}, "northeast": {"lng": 77.7394115802915, "lat": 12.9685567802915}}, "location": {"lng": 77.73806259999999, "lat": 12.9672078}}, "scope": "GOOGLE", "icon": "https://maps.gstatic.com/mapfiles/place_api/icons/lodging-71.png", "vicinity": "#404, BM Happy Valley, Victorian View Layout, Borewell Road Nallurahalli, Whitefield, Krishnarajpur", "rating": 5, "id": "26b56807c014160a3c23d0ab9c4752a2fcf67cc1"}, "ChIJZQs-qB0SrjsRPSjYmae9TUM": {"name": "Sunshine Silicon Valley Apartment", "reference": "CmRRAAAAfOIOZh05TBZ3p-AHRHBtupzrDCekrV6j-_BuGei3gPMYvZtFiKXNMTpNQngZEnExuuEoR-iwZk7QTiuafdBs23V1FXAYSTsWbWHufUSGcu2bvkkf-XCu8IPpOkM20W0pEhDMdS2S1fjsLJaGvLt82tR0GhS_opyjhpuaQ9CqbShfq98vQafOUw", "place_id": "ChIJZQs-qB0SrjsRPSjYmae9TUM", "types": ["point_of_interest", "establishment"], "geometry": {"viewport": {"southwest": {"lng": 77.73589611970849, "lat": 12.9655528197085}, "northeast": {"lng": 77.7385940802915, "lat": 12.9682507802915}}, "location": {"lng": 77.7372451, "lat": 12.9669018}}, "scope": "GOOGLE", "icon": "https://maps.gstatic.com/mapfiles/place_api/icons/generic_business-71.png", "vicinity": "S.M.Tranquil, Victorian View Layout, Borewell Road, Palm Meadows, Nallurhalli, Whitefield, Bengaluru", "id": "e2cd18eeb0500b03eb1fc4c65899c51a2db56f7a"}, "ChIJ7Rh0qQYSrjsRFVkaoEk1cdM": {"place_id": "ChIJ7Rh0qQYSrjsRFVkaoEk1cdM", "reference": "CmRSAAAAQ6dU6Mgz0s0E6MHI-39TYHs6xuhwgsZdKchiZI-8ItObmYN7GMPEIMjbHVcH7Do4X62_j0uraiK6hmJ21j11MHSQ98IRtKt3yb2SFXCiVk5ZenROpdW9vbw1w_EgdOqsEhBOIO4-N0g_upHp7OGc-ttLGhTQkYVWqwIsoXl5opLaKPaA87pxKw", "name": "Sohum Isiri", "types": ["point_of_interest", "establishment"], "geometry": {"viewport": {"southwest": {"lng": 77.73833786970849, "lat": 12.9667245197085}, "northeast": {"lng": 77.74103583029151, "lat": 12.9694224802915}}, "location": {"lng": 77.7395877, "lat": 12.9680896}}, "scope": "GOOGLE", "icon": "https://maps.gstatic.com/mapfiles/place_api/icons/generic_business-71.png", "vicinity": "Survey No.43/3, New No.43/5, Borewell Road, Nallurhalli, Whitefield, Bengaluru", "rating": 4, "photos": [{"height": 1536, "photo_reference": "CmRaAAAA2r-zXj28_40qT6H7SuPhYm0Uq0QTyuUE2aOvFI-jjD9dY0azwUvxox0DbIUxkbLoPiIeq0tqlDCWgnEEPkvH4-UYfYzTsAiLyKNruynaZ3SjbXgXUYJJ28mdCVfcibiIEhAKX3k1palv7-bG-NKUiGR8GhT7SIcWlfHgou7fw-PpTHExfC49Pw", "html_attributions": ["<a href=\"https://maps.google.com/maps/contrib/108967395366943394533/photos\">Jitesh Nair</a>"], "width": 2048}], "id": "336edab723aadc51b4b25272f3b2cd5709d648de"}, "ChIJ00rmxfgNrjsRVi84NnEii8Q": {"place_id": "ChIJ00rmxfgNrjsRVi84NnEii8Q", "types": ["school", "point_of_interest", "establishment"], "scope": "GOOGLE", "icon": "https://maps.gstatic.com/mapfiles/place_api/icons/school-71.png", "opening_hours": {"weekday_text": [], "open_now": false}, "reference": "CmRSAAAAcffwMOzBq0FyKBxIhtDWJcrbsP4xmxPD283oE65TZjmWquswFiOJgU1JmnzZcsBMZDKEX3H2dnF9aMNItx58QsF8VPBlBsXkB9YrSXWmyn7AxG6Wc_sCoTM6R2J_zWS5EhBAUSxXBbBnVrF4enDpMTN4GhQyMEQiuyoonXMzKRdZYWDtUiNBcQ", "name": "Eurokids - Whitefield", "geometry": {"viewport": {"southwest": {"lng": 77.74331281970849, "lat": 12.9669864197085}, "northeast": {"lng": 77.74601078029151, "lat": 12.9696843802915}}, "location": {"lng": 77.7446618, "lat": 12.9683354}}, "id": "a22c5c043311233d4b44c255b45cb3e10db2a140", "vicinity": "243/2, 6th Cross, Borewell Road, Whitefield, Bengaluru", "rating": 3.7, "photos": [{"height": 600, "photo_reference": "CmRaAAAA_fVMoCilhuPnK14Al0f7JeUsJyB2YVlrI1Z_6wSHlikjHEdic3LLwRRDh8PTp4VOQxE4TgakZIOvlQZr97nI3qXoyFNqPhNhZmM30oIEYdaU0zpRYMp_5jISrm8rOGWiEhChkZH4sOjzVVi3FgV21hOBGhQ7qOASoQFDoMZdT_jp9npMlV_9KA", "html_attributions": ["<a href=\"https://maps.google.com/maps/contrib/106651409831625408612/photos\">Eurokids - Whitefield</a>"], "width": 800}]}, "ChIJ2Tf2MgESrjsR4YqV4zeB_rM": {"place_id": "ChIJ2Tf2MgESrjsR4YqV4zeB_rM", "reference": "CmRSAAAAFFBRRHvmomi7-_zoJNJIJ2YwCuEH4YD3oQfif_qNDpDeBC8e6xg8CgXLQKtHus8rgSS7Jp-9SXdD4aLMWigznFOUAWa2_7YRzSlEegE8Bo0WXDDEf06jnXVPXxqbZUqhEhDd9l5nIK8nz7lD19y2sVoYGhT8hABZJ8QU4dM4A0Ux5lhQN_or7A", "name": "Malibu Paloma", "types": ["point_of_interest", "establishment"], "geometry": {"viewport": {"southwest": {"lng": 77.73970656970849, "lat": 12.9678542197085}, "northeast": {"lng": 77.74240453029151, "lat": 12.9705521802915}}, "location": {"lng": 77.7411558, "lat": 12.9690584}}, "scope": "GOOGLE", "icon": "https://maps.gstatic.com/mapfiles/place_api/icons/generic_business-71.png", "vicinity": "Borewell Road, Phase 1, Whitefield, Bengaluru", "rating": 4.2, "photos": [{"height": 2310, "photo_reference": "CmRaAAAA-w_oGjB6GIq9fMU5G4Mcm1qwmeZCkVNO-hEoZsAqxfyc41cx8zJctAuijzhdEyxgaEIn6WB_u2NWS601fLgdQbolnqxZK1NvPsocAL-h3lbB2QtfcTrx0sdBlshQhc2pEhDd96mDQeuogpTxIt6hY6wXGhQVIMzl7_kB6c0_tHzCyuepj_kKxA", "html_attributions": ["<a href=\"https://maps.google.com/maps/contrib/100877408694091439713/photos\">Balakrishna reddy</a>"], "width": 2307}], "id": "4265219458f39898a5a5cc4a134fc8524f0e7511"}, "ChIJ8SWYFAMSrjsR6GKDnfcNGiU": {"place_id": "ChIJ8SWYFAMSrjsR6GKDnfcNGiU", "types": ["grocery_or_supermarket", "supermarket", "store", "food", "point_of_interest", "establishment"], "scope": "GOOGLE", "icon": "https://maps.gstatic.com/mapfiles/place_api/icons/shopping-71.png", "opening_hours": {"weekday_text": [], "open_now": true}, "reference": "CmRRAAAAyPbEG8nh5tizVArFdus6sTLQ4HucEUrSdzq9wiRLAmMmyQLloB_59zEYpoHLYPp9XHmXcKnoweSDLtC7LioBAzxID7b6F27luU890gU8Q212BJP4fo3g_2zMfsWGdE9lEhCCumH70itSDRmeXyopSLWwGhS7MQ5qJKXaWk2c3Rg-be4SJqwyFQ", "name": "The Whitefield Market", "geometry": {"viewport": {"southwest": {"lng": 77.73411641970849, "lat": 12.9682797197085}, "northeast": {"lng": 77.7368143802915, "lat": 12.9709776802915}}, "location": {"lng": 77.735446, "lat": 12.969717}}, "id": "c83c7fcdbe5c72dabffa0ee1c32818ed0d122740", "vicinity": "Nallurahalli Jn,, Nallurhalli, Whitefield, Bengaluru", "rating": 4, "photos": [{"height": 1872, "photo_reference": "CmRaAAAAlkVE3wV3aFglmvskP8UyHvbjQ7rX0bqWSIRvz7fHsT--dhQOAE1-SVgAFVFdL-RK67NX-5kDlBuoheNzMTZkpmvJymHbYb4XJPnyWEqkGnoTnGNzbP_h_53tBjbF9oSBEhA9iZ0D9vGctJ_2KX3iIcxfGhTeh8N3ZUaXzaS5-O8CqGofDQ6mLw", "html_attributions": ["<a href=\"https://maps.google.com/maps/contrib/109541426803824842030/photos\">Rajat Gupta</a>"], "width": 3328}]}, "ChIJ4U0GagMSrjsRqsNp4b0ZpqU": {"place_id": "ChIJ4U0GagMSrjsRqsNp4b0ZpqU", "reference": "CmRSAAAAKWOgfvldkLWPfzC8K02cQJB0_5g066bKT3ufXUNRpWK91Pd4_R9en_Mj4AMxIzrvJX3jww1FcdfDadgZvd8FmqBwooGT3RnBSg4JVwCxO0yq87V4DAQpdZaUMeRL0DhwEhCEzLHqeM91w0droPXg3KFdGhSMte5-Te05IAtmYF1YEkUEN8A8Sg", "name": "Sirkus Systems IT Services Pvt Ltd", "types": ["point_of_interest", "establishment"], "geometry": {"viewport": {"southwest": {"lng": 77.7342278197085, "lat": 12.9685822197085}, "northeast": {"lng": 77.7369257802915, "lat": 12.9712801802915}}, "location": {"lng": 77.73557679999999, "lat": 12.9699312}}, "scope": "GOOGLE", "icon": "https://maps.gstatic.com/mapfiles/place_api/icons/generic_business-71.png", "vicinity": "The Twin Oaks, #1/5, Nallurahalli Jn, Whitefield,, Beside The Whitefield Market,, Bengaluru", "rating": 4.1, "photos": [{"height": 675, "photo_reference": "CmRaAAAABWNJUxgSCQNzbsEGPwN7oaZ90JPZhqYQ2hMnlCtVdukzjBTFJxIfN6gButGKnz5Vlu4fICMjC_61VneyE2q6IuBp38QJaf8pfPrNESuFzaPeVwSWHkEpskYW6K7FZue2EhB73fB_fBmSx94eiZn4xQrGGhTQtDIZT34E_Afs6mrkmZMLNn2AiA", "html_attributions": ["<a href=\"https://maps.google.com/maps/contrib/112310493991911321183/photos\">Sirkus Systems IT Services Pvt Ltd</a>"], "width": 1200}], "id": "2c2176bbd437677aa8d800c5479ff751992caa27"}, "ChIJR5dxagMSrjsR0kDtGjMT3U4": {"name": "Nandini Milk Parlour", "reference": "CmRRAAAAhtYho5_iKYxlLMCiOvWWIres0eDK8SgUiPgDe73f3c7-rKddXP1cZARY581dsagtzKGW8IaEyLYGUWNdGzrmjMB5ik-oP8OiwecNZoRTlgoBzsUVemgmi10XNXJnc50qEhCRwJno_txw4xIX59B6VV0nGhQHWhS3DyO2EzLVa4I-TVgzTN--vw", "place_id": "ChIJR5dxagMSrjsR0kDtGjMT3U4", "types": ["food", "point_of_interest", "establishment"], "geometry": {"viewport": {"southwest": {"lng": 77.7338811197085, "lat": 12.9680917197085}, "northeast": {"lng": 77.7365790802915, "lat": 12.9707896802915}}, "location": {"lng": 77.73523010000001, "lat": 12.9694407}}, "scope": "GOOGLE", "icon": "https://maps.gstatic.com/mapfiles/place_api/icons/generic_business-71.png", "vicinity": "Nallurhalli, Whitefield, Bengaluru", "rating": 4, "id": "270a381d80586a514c27c8520014a5964735dd74"}}}, "12.98": {"77.73": {"ChIJixmRVfERrjsR4-QBaxZrfW8": {"place_id": "ChIJixmRVfERrjsR4-QBaxZrfW8", "types": ["spa", "lodging", "restaurant", "food", "point_of_interest", "establishment"], "scope": "GOOGLE", "icon": "https://maps.gstatic.com/mapfiles/place_api/icons/lodging-71.png", "opening_hours": {"weekday_text": [], "open_now": true}, "reference": "CmRRAAAAWBWhlDcCBgeUS_1HK7yUFOqD7tbhVoWbCa-bD1A_ylYgFgoWkLE_45MZprayQC0UDefw3-zQ9H6-N7Bo9xTjZhW5jwvwtvWVSbQIEXaTAngr4LQXNwtskb8KbHQAH0NzEhA-mGO8aCNV7MNSZclBKwwTGhQhx6OLjmLb2MhLUtyRLWAfut9DMQ", "name": "Bengaluru Marriott Hotel Whitefield", "geometry": {"viewport": {"southwest": {"lng": 77.72672131970849, "lat": 12.9782774197085}, "northeast": {"lng": 77.7294192802915, "lat": 12.9809753802915}}, "location": {"lng": 77.727944, "lat": 12.979255}}, "id": "4ce21da41fa1ae33c747914b29b79a199f67348b", "vicinity": "75 EPIP Area, 8th Road, EPIP Zone, Whitefield, Bengaluru", "rating": 4.5, "photos": [{"height": 423, "photo_reference": "CmRaAAAAC-c9iUXFGchytNh9EIy5eV83WQu80JN3xtNjdbjn8tE7Bm-dE3FWRNprVb6NmQMDoChcBiM4YYviJ5cxalxuyR5xULrRVZLofDj3fhQlbPYa_z9tkiEA1G0GpUk-etv3EhCMgIUVqt5Biw-SArYuALeBGhTVVXbtx5TLA_3WsSd9bkZqzwEzzg", "html_attributions": ["<a href=\"https://maps.google.com/maps/contrib/102928837482904326795/photos\">Bengaluru Marriott Hotel Whitefield</a>"], "width": 610}]}, "ChIJXzBQy-MWrjsRZ9Bp0Shbzps": {"place_id": "ChIJXzBQy-MWrjsRZ9Bp0Shbzps", "reference": "CmRSAAAA9HRSMKKWIpqgMLFgxdlBgotQb5s5DDTGGrk7YveFKK3HnygV2jEkwj6yS-jsy98OV_pL6mw1Xx0O-bfC7boVEj1tp08W-JRLLxLMGsh6pSswdLJl_KKVaH-Oqt5k97JUEhBemjXl8R25OwCGv8k8Iz13GhSxDKqgiOd2lXyte1dY4QHfLbYR2w", "name": "Interior Designers", "types": ["general_contractor", "point_of_interest", "establishment"], "geometry": {"viewport": {"southwest": {"lng": 77.72529201970849, "lat": 12.9737490197085}, "northeast": {"lng": 77.72798998029151, "lat": 12.9764469802915}}, "location": {"lng": 77.726641, "lat": 12.975098}}, "scope": "GOOGLE", "icon": "https://maps.gstatic.com/mapfiles/place_api/icons/generic_business-71.png", "vicinity": "Prestige Omega, whitefiled, Bengaluru", "rating": 5, "photos": [{"height": 1305, "photo_reference": "CmRaAAAAuFCNongeSvPz15_wkVk9pCu9VtBD4HtxWjS8vGh8DRNFKo8jmkWQ5LcbyqElvPdCeWYNoeJKnpyUI16kVWehwCCuc4VvWmtlqXRvvl0SCz9D-T-G-RHX5Pc3SqxIBgxMEhB2jRmSNC95ZT4D8Cb4qzPcGhQycpg0ozFPVdchFDjwQzbhTAzCCA", "html_attributions": ["<a href=\"https://maps.google.com/maps/contrib/100412153137769546008/photos\">Joby Joseph</a>"], "width": 2048}], "id": "7ddcc296a0944168104362e8dac5437c2f3747c9"}, "ChIJeZx9wPURrjsRZr5C3NCHCzY": {"place_id": "ChIJeZx9wPURrjsRZr5C3NCHCzY", "types": ["real_estate_agency", "point_of_interest", "establishment"], "scope": "GOOGLE", "icon": "https://maps.gstatic.com/mapfiles/place_api/icons/generic_business-71.png", "opening_hours": {"weekday_text": [], "open_now": false}, "reference": "CmRRAAAAxFNZ-32SND_FKgPng8kWOtyAKdYtmDLF-6RQtsqQHV1ljR8M1uRSjpBrgLgFBpkZJIEliOiM40goBp4q8L8x9FccD1yvvwCBSJE7Y-s1l0Xf6u7oQil-qDt_FgCnAviJEhAxY7TcddbAG671sD7OpuVcGhTFVkGR4NU3410eGZTV2vjWtg6pVA", "name": "Regus - Bangalore Whitefields", "geometry": {"viewport": {"southwest": {"lng": 77.7254025197085, "lat": 12.9738750697085}, "northeast": {"lng": 77.72810048029152, "lat": 12.9765730302915}}, "location": {"lng": 77.7266127, "lat": 12.9752891}}, "id": "1e6eaa3ae3229398a4fcca03e04d6880dca27ec8", "vicinity": "104, EPIP Zone Whitefield Road, Vijayanagar, Phase 2, Brookefield, Bengaluru", "rating": 4.1, "photos": [{"height": 3456, "photo_reference": "CmRaAAAAuRAKvzi2Y3yhVtERLodRBirqX0ms76zkaVvfxg5NR3n42cG337R6Ow0X4N2mzfjfDkdUn0RVPUm6Jd_GvekfwfA7OM675U7TqYC7Xr-qZTshini-KCQX0k2gyOV7G1N5EhCYKFC8xvfE1iuIQx0Jx3c-GhSwucv3pnguX-YeGvCG1x3zykAKqA", "html_attributions": ["<a href=\"https://maps.google.com/maps/contrib/100854121615444459733/photos\">Sony Mathew</a>"], "width": 4608}]}, "ChIJHcM4qfURrjsR4DxNw0Khs1w": {"place_id": "ChIJHcM4qfURrjsR4DxNw0Khs1w", "types": ["point_of_interest", "establishment"], "scope": "GOOGLE", "icon": "https://maps.gstatic.com/mapfiles/place_api/icons/generic_business-71.png", "opening_hours": {"weekday_text": [], "open_now": false}, "reference": "CmRRAAAA075tDtLyvQWPA3VjUQe6k7nEBjQIaA2qPk6ZmV_dPKGAHifdy21VKOPZWr69r1ndpyGvKO-jYynt-SRoNYcbdVW0tw_C15sUe9Ox_rEwWpeWOTQ0Sfy0mzZIGyN5E-CnEhBQlUG7QckjiyuUrO8VrZP3GhSxoD6cVJ07C0d_N7hvbWrJyf-CMA", "name": "AMD India Private Limited", "geometry": {"viewport": {"southwest": {"lng": 77.72434051970849, "lat": 12.9738523697085}, "northeast": {"lng": 77.72703848029151, "lat": 12.9765503302915}}, "location": {"lng": 77.7255356, "lat": 12.9754164}}, "id": "77941a03c74a789335b54abdbde51b5abd349c12", "vicinity": "Plot # 102-103, Export promotion Industrial Park, Whitefield, Bengaluru", "rating": 4.6, "photos": [{"height": 3120, "photo_reference": "CmRaAAAAifOjq51r_J4Q8WtDat-ZqTHAr5UQRA36M6ULgDbaYx0tkR4KZdIwc9fsT9rZ9WUVpgASeCINkiIKJ5s6vdl7II8O1Q0oJzNT62GhiN9unhh-8bkWgEhraWsF6zAJcQf0EhBnphqOkoyAejIV_Vky9duNGhQ98Naly0BEFOZLrTxr9zzxbMIjXw", "html_attributions": ["<a href=\"https://maps.google.com/maps/contrib/113498758607491290832/photos\">Akshay Joshi</a>"], "width": 4160}]}, "ChIJCRdGyPMRrjsRsJ9-fte1PCE": {"place_id": "ChIJCRdGyPMRrjsRsJ9-fte1PCE", "types": ["meal_delivery", "meal_takeaway", "restaurant", "food", "point_of_interest", "establishment"], "scope": "GOOGLE", "icon": "https://maps.gstatic.com/mapfiles/place_api/icons/restaurant-71.png", "opening_hours": {"weekday_text": [], "open_now": true}, "reference": "CmRRAAAA4vs9Qf8xg5RWZc0EkalYDaN7dNgSXNrk_5BwB1GV6KtfYklGoh_GBpADz8ehN1QIfyAzOHG59-6FKiV7yb8p24Jw2nCctLBKOEOazv8_ps6V6cghIhsHNMRm1MvlZA5TEhDIc3oYgTG7VNRnUrcndfiTGhSmVNdtMAXvAqQowEzwhZ3cmWbRoA", "name": "Domino's Pizza", "price_level": 1, "geometry": {"viewport": {"southwest": {"lng": 77.7253830197085, "lat": 12.9802820197085}, "northeast": {"lng": 77.72808098029151, "lat": 12.9829799802915}}, "location": {"lng": 77.726732, "lat": 12.981631}}, "id": "bd2f24aae9fb52ed155cd148ab1809cb98100cdb", "vicinity": "Plot No.13,14,15, SJR I PARK, Leisure Well, EPIP, Opp Satya Sai Medical Institiute, Whitefield, Bengaluru", "rating": 3.2, "photos": [{"height": 3456, "photo_reference": "CmRaAAAAJDAfTuMU1P-IHYXbxEI1Jxm48I1vT7kPTa04hbCuomYSZgqklYlRCnLTjOnz2-MVb-MMP1T8VZoOgzb7Qdok7zhT9iXD6TTKzwRRxl7sv5XnRrL_uS-0fvBWc1oCX1bhEhCoMzbVd_G06Q7ELSEwTM1zGhQKnXoGBGLKFDzsGjVK0DNCHdrS_w", "html_attributions": ["<a href=\"https://maps.google.com/maps/contrib/109712738388554164502/photos\">kalpana ram</a>"], "width": 4608}]}, "ChIJQdp7Nv0RrjsRl7Muond3HA0": {"place_id": "ChIJQdp7Nv0RrjsRl7Muond3HA0", "types": ["cafe", "store", "restaurant", "food", "point_of_interest", "establishment"], "scope": "GOOGLE", "icon": "https://maps.gstatic.com/mapfiles/place_api/icons/cafe-71.png", "opening_hours": {"weekday_text": [], "open_now": true}, "reference": "CmRRAAAAqfThmTsRzkjHLtCItwLcTg0qBJBM-cVvOBgeDUDyObCryZzAGiz3sCenPcmObc6KOD4Ohg6t2VDX_C_2LSKQepzflblWIX0zmDRNbfnHN9EBg2fBUFKKQ3-fHdwtnVulEhAFzt1Mcikkif98One7sC_3GhTNHU-CdqSv4xpEo5MDvTXrQlodQw", "name": "Caf\u00e9 Coffee Day - EPIP Zone", "geometry": {"viewport": {"southwest": {"lng": 77.7273795197085, "lat": 12.9780096197085}, "northeast": {"lng": 77.73007748029151, "lat": 12.9807075802915}}, "location": {"lng": 77.72872850000002, "lat": 12.9793586}}, "id": "c4ae2dbda410ba3b4327ff9c45304797dee34096", "vicinity": "EPIP Zone, Whitefield, Whitefield, Bengaluru", "rating": 3.7, "photos": [{"height": 1080, "photo_reference": "CmRaAAAAbWcFJG2Ics6_XUxCf-E2L_Q37GXJq-vQB8Ajt3zPcj3Ni0JWzj6yukugzLTDdB32Nt8pb-6t0RiVtH37AAowcHByFauMGw0z62n3BAaySDVWl68PNg_JTvBTvCDMmy2hEhCD8rte08j6RZSoRmyM0K-gGhTjrHj7BAUg2euI4-Fv1ldjGEt4_Q", "html_attributions": ["<a href=\"https://maps.google.com/maps/contrib/109513450766385758659/photos\">Arun n</a>"], "width": 1920}]}, "ChIJ05uKsvYRrjsRBHF1XwxQYdA": {"name": "Momo Station", "reference": "CmRSAAAA_voYP-E8kAoHInYwdGN_VDGoucuwdZhCy-rRgL6jwDJICsBih5DhAcy_sTMIy-OHUQN6k-uCB-oVbuy7VP-B6Ve0SnrmCQbzrjS5aK48ZNbPc5C3pvJzuI4db4_ztM86EhBWKb0Cm87WVwbsmxuNpo0aGhTEvt2a0THvoQIG7_pc33DGWEZkKQ", "place_id": "ChIJ05uKsvYRrjsRBHF1XwxQYdA", "types": ["restaurant", "food", "point_of_interest", "establishment"], "geometry": {"viewport": {"southwest": {"lng": 77.7275240197085, "lat": 12.9774757197085}, "northeast": {"lng": 77.73022198029152, "lat": 12.9801736802915}}, "location": {"lng": 77.72883740000002, "lat": 12.9790939}}, "scope": "GOOGLE", "icon": "https://maps.gstatic.com/mapfiles/place_api/icons/restaurant-71.png", "vicinity": "Inorbit Mall, 6th Road, KIADB Export Promotion Industrial Area, Whitefield, Bengaluru", "id": "461e5842c69b5409cea4a7218b7a50c1debe7881"}, "ChIJu0AsvPURrjsRq4QHGuhraXE": {"name": "Chaithanya Projects Private Limited", "reference": "CmRRAAAAHRDx8-j5K9_yS99j-aqBbiXpddd20iDYU20Fh3QOSZgI3-YzeSUwfPg1_QeskuTJapigBbk0V6jm-AELsKsw09ft-lE6R-uPpGqsGaU1PncsRquovCOJrlobuA9c_wtwEhBS0C4tSRNDpbfrkqwzxDCgGhTAUPblioveSVv-q6NPTUlXe9jbGg", "place_id": "ChIJu0AsvPURrjsRq4QHGuhraXE", "types": ["real_estate_agency", "point_of_interest", "establishment"], "geometry": {"viewport": {"southwest": {"lng": 77.7248189197085, "lat": 12.9736841697085}, "northeast": {"lng": 77.7275168802915, "lat": 12.9763821302915}}, "location": {"lng": 77.7261393, "lat": 12.9750988}}, "scope": "GOOGLE", "icon": "https://maps.gstatic.com/mapfiles/place_api/icons/generic_business-71.png", "vicinity": "#104, 3rd Floor, Prestige Omega, EPIP Zone, Whitefield, Bengaluru", "rating": 4.1, "id": "290209cbd6eef8a55ee1885d7c4adb1e30e98700"}, "ChIJ8xt4wPMRrjsRU9vwjPV1ka4": {"place_id": "ChIJ8xt4wPMRrjsRU9vwjPV1ka4", "types": ["point_of_interest", "establishment"], "scope": "GOOGLE", "icon": "https://maps.gstatic.com/mapfiles/place_api/icons/generic_business-71.png", "opening_hours": {"weekday_text": [], "open_now": false}, "reference": "CmRSAAAALTl2cW9l41f0pQYnrKJhEPs3MOwlbxQbxEkma_CBGsezBU9wewg7xdQIbDSiIMJtKj71p0ydxve06uNBzPunfgXpt3T_vIoRb-yMw-agjHrFwK4SlskUsz7KapJJ_RUaEhALwER7mpcK6S9g3GFASIRiGhQqDkyuQd734dy0z57tQZsdQ3jdWA", "name": "QuEST Rolls Royce", "geometry": {"viewport": {"southwest": {"lng": 77.72493591970849, "lat": 12.9798110197085}, "northeast": {"lng": 77.7276338802915, "lat": 12.9825089802915}}, "location": {"lng": 77.7262849, "lat": 12.98116}}, "id": "874cd50b2252fd3e228f2c9fd8312a02302d7da4", "vicinity": "SJR I-Park, Tower 3, Industrial Plot No. 13, 14, & 15 EPIP, 7th Road, Whitefield, Bengaluru", "rating": 4.1, "photos": [{"height": 2304, "photo_reference": "CmRaAAAASNv6xOdRqsddt9ElbSjVi3et9xf4v9KeQmicOnrjF0hlVSviwW7FUKDUizElc1Jcy5BPPRphXOOc25D2BIVKkoDjKoAmaAG5p_85yNGYI5bzkRI-VugpAyqq-uPRIKSDEhCUoLbRqEMJtcDDtvH290oAGhTYOB0xZkPppd6y-ZVU-nMMo5lMOQ", "html_attributions": ["<a href=\"https://maps.google.com/maps/contrib/116869091064335399414/photos\">BK Gajendra</a>"], "width": 4096}]}, "ChIJCdG-wPMRrjsR2xznbNaj2kw": {"place_id": "ChIJCdG-wPMRrjsR2xznbNaj2kw", "types": ["finance", "point_of_interest", "establishment"], "scope": "GOOGLE", "icon": "https://maps.gstatic.com/mapfiles/place_api/icons/generic_business-71.png", "opening_hours": {"weekday_text": [], "open_now": false}, "reference": "CmRRAAAA9eFvtrIFpW50FTzd1uU7WEtwaM6bPkneqQiwjO9npsXzKpQMJrE7sdNIFlqyX1jLGlNRdmGCqKaBvK59zXRCxl71nzL30XKs484mrygAp8HO45i_FC2SzTrUPIHLTNZ4EhCH0tfhjPxny6cVtpKOJeH2GhTsLUkRAjkHZy5_39goROtyc12Kug", "name": "Fidelity Information Services", "geometry": {"viewport": {"southwest": {"lng": 77.7256413197085, "lat": 12.9793740697085}, "northeast": {"lng": 77.72833928029151, "lat": 12.9820720302915}}, "location": {"lng": 77.7266631, "lat": 12.9806493}}, "id": "fdd252fb07ece43cf4a7051f760dbe1295c401cb", "vicinity": "2nd Floor, Sjr Ipark, Epip Zone, Whitefield Main Road, Bengaluru", "rating": 4.4, "photos": [{"height": 3120, "photo_reference": "CmRaAAAAkcIYsCRyoecwl7AgKFdtKApTbvtNqFJ-kjLUYFyAZegz-Cjhaqkq9-vjVCuy1y2c5WBbROQEz-G0YiluS-cGP41iCFjQBUItoq6uviDSkgjCH9NvYVGWOQcLeiTWu24jEhBdZif8o9OPzU3ZcNXn58ppGhTbS1o5GtQLlM5re2WR3pwqV-c6UA", "html_attributions": ["<a href=\"https://maps.google.com/maps/contrib/102634767217840817642/photos\">David Augustus</a>"], "width": 4160}]}, "ChIJAQHPPuURrjsReThx0-av3_Y": {"place_id": "ChIJAQHPPuURrjsReThx0-av3_Y", "types": ["health", "point_of_interest", "establishment"], "scope": "GOOGLE", "icon": "https://maps.gstatic.com/mapfiles/place_api/icons/generic_business-71.png", "opening_hours": {"weekday_text": [], "open_now": false}, "reference": "CmRSAAAAduA-IJPQyWT7DYKhysW-R5-7Ee-LIIASXgfZDXG_2Zel0JK-0hu_4POOvVFpKxeF_Qd2EIk8sorE3NFMEglvF-NtNa9WQfaEpObZdtjpWjRGCAhndCr9obqYTXab6ZmzEhCY2Lu5xSTE4Xt6HV5xzoanGhS-IHcf4-i7v9M8D7wyi0L_BO59zw", "name": "BioPharma Chemicals", "geometry": {"viewport": {"southwest": {"lng": 77.7248850197085, "lat": 12.9746170197085}, "northeast": {"lng": 77.7275829802915, "lat": 12.9773149802915}}, "location": {"lng": 77.72623399999999, "lat": 12.975966}},